"externalId","stationId","legacyId","station_type","eightd_station_services","has_kiosk","lat","name","capacity","lon","electric_bike_surcharge_waiver","short_name","eightd_has_key_dispenser","address"
"1963359453732131538","1963359453732131538",,"classic","[]",false,41.79431,"Kedzie Ave & 54th Pl",11,-87.70348,false,"24266",false,
"a3a96aca-a135-11e9-9cda-0a87ae2ba916","a3a96aca-a135-11e9-9cda-0a87ae2ba916",,"classic","[]",true,41.827059,"Halsted St & 37th St",11,-87.64572,false,"TA1307000161",false,
"a3ad7636-a135-11e9-9cda-0a87ae2ba916","a3ad7636-a135-11e9-9cda-0a87ae2ba916",,"classic","[]",true,41.79342945658,"MLK Jr Dr & 56th St",11,-87.6158532619,false,"KA1503000073",false,
"2010820263334840794","2010820263334840794",,"classic","[]",false,41.94766,"Panama Ave & Grace St",11,-87.82925,false,"21394",false,
"a3b2905a-a135-11e9-9cda-0a87ae2ba916","a3b2905a-a135-11e9-9cda-0a87ae2ba916",,"classic","[]",true,41.75211500633265,"Exchange Ave & 79th St",11,-87.55200700025293,false,"580",false,
"da9e6779-5056-4d45-bae3-9dc325ed2807","da9e6779-5056-4d45-bae3-9dc325ed2807",,"classic","[]",true,41.699206168127674,"Hale Ave & 107th St",11,-87.66891896724701,false,"20108",false,
"a3acea44-a135-11e9-9cda-0a87ae2ba916","a3acea44-a135-11e9-9cda-0a87ae2ba916",,"classic","[]",true,41.76550800581,"Calumet Ave & 71st St",11,-87.616917925,false,"15599",false,
"a3b1c47b-a135-11e9-9cda-0a87ae2ba916","a3b1c47b-a135-11e9-9cda-0a87ae2ba916",,"classic","[]",true,41.872993,"Central Ave & Harrison St",11,-87.764499,false,"16915",false,
"a3a9c0f6-a135-11e9-9cda-0a87ae2ba916","a3a9c0f6-a135-11e9-9cda-0a87ae2ba916",,"classic","[]",true,41.8378,"Morgan St & 31st St",11,-87.65114,false,"TA1308000046",false,
"a3ac35ed-a135-11e9-9cda-0a87ae2ba916","a3ac35ed-a135-11e9-9cda-0a87ae2ba916",,"classic","[]",true,41.77351755125,"Jeffery Blvd & 67th St",11,-87.5771428255,false,"KA1503000030",false,
"a3a528d0-a135-11e9-9cda-0a87ae2ba916","a3a528d0-a135-11e9-9cda-0a87ae2ba916",,"classic","[]",true,41.778881,"Stony Island Ave & 64th St",11,-87.586647,false,"KA1503000021",false,
"a3b2862e-a135-11e9-9cda-0a87ae2ba916","a3b2862e-a135-11e9-9cda-0a87ae2ba916",,"classic","[]",true,41.751785,"Bennett Ave & 79th St",11,-87.578496,false,"16970",false,
"a3b222fc-a135-11e9-9cda-0a87ae2ba916","a3b222fc-a135-11e9-9cda-0a87ae2ba916",,"classic","[]",true,41.794228,"Racine Ave & Garfield Blvd",11,-87.655073,false,"559",false,
"a3b11480-a135-11e9-9cda-0a87ae2ba916","a3b11480-a135-11e9-9cda-0a87ae2ba916",,"classic","[]",true,41.887832,"Laramie Ave & Kinzie St",11,-87.755527,false,"530",false,
"a3ad2d57-a135-11e9-9cda-0a87ae2ba916","a3ad2d57-a135-11e9-9cda-0a87ae2ba916",,"classic","[]",true,41.82301523798,"State St & Pershing Rd",11,-87.6265680185,false,"15449",false,
"a3a72012-a135-11e9-9cda-0a87ae2ba916","a3a72012-a135-11e9-9cda-0a87ae2ba916",,"classic","[]",true,41.90230870122,"Rush St & Cedar St",11,-87.627690528,false,"KA1504000133",false,
"a3acdae2-a135-11e9-9cda-0a87ae2ba916","a3acdae2-a135-11e9-9cda-0a87ae2ba916",,"classic","[]",true,41.78007963264,"Wentworth Ave & 63rd St",11,-87.6297463052,false,"KA1503000025",false,
"a3b22d3d-a135-11e9-9cda-0a87ae2ba916","a3b22d3d-a135-11e9-9cda-0a87ae2ba916",,"classic","[]",true,41.785861065132,"Damen Ave & 59th St",11,-87.67414391040802,false,"561",false,
"a3b23cb8-a135-11e9-9cda-0a87ae2ba916","a3b23cb8-a135-11e9-9cda-0a87ae2ba916",,"classic","[]",true,41.775393,"Racine Ave & 65th St",11,-87.654308,false,"564",false,
"a3acb1de-a135-11e9-9cda-0a87ae2ba916","a3acb1de-a135-11e9-9cda-0a87ae2ba916",,"classic","[]",true,41.88445395657,"California Ave & Lake St",11,-87.6962981368,false,"15666",false,
"a3b2d7d9-a135-11e9-9cda-0a87ae2ba916","a3b2d7d9-a135-11e9-9cda-0a87ae2ba916",,"classic","[]",true,41.805661,"Western Blvd & 48th Pl",11,-87.683392,false,"594",false,
"a3a9c5f7-a135-11e9-9cda-0a87ae2ba916","a3a9c5f7-a135-11e9-9cda-0a87ae2ba916",,"classic","[]",true,41.84847,"Western Ave & 24th St",7,-87.685109,false,"TA1309000003",false,
"a3b1d532-a135-11e9-9cda-0a87ae2ba916","a3b1d532-a135-11e9-9cda-0a87ae2ba916",,"classic","[]",true,41.880281,"Austin Blvd & Madison St",11,-87.774453,false,"16918",false,
"a3b24701-a135-11e9-9cda-0a87ae2ba916","a3b24701-a135-11e9-9cda-0a87ae2ba916",,"classic","[]",true,41.759274039331224,"Damen Ave & 74th St",11,-87.67363429069519,false,"16951",false,
"a3b2d2b7-a135-11e9-9cda-0a87ae2ba916","a3b2d2b7-a135-11e9-9cda-0a87ae2ba916",,"classic","[]",true,41.787539,"Halsted St & 59th St",11,-87.644874,false,"593",false,
"a3ad13e4-a135-11e9-9cda-0a87ae2ba916","a3ad13e4-a135-11e9-9cda-0a87ae2ba916",,"classic","[]",true,41.842733,"Shields Ave & 28th Pl",11,-87.635491,false,"15443",false,
"90011328-f7bd-4b7b-8f95-8204a0b50f27","90011328-f7bd-4b7b-8f95-8204a0b50f27",,"classic","[]",true,41.89737986072316,"Wells St & Institute Pl",11,-87.63442039489746,false,"22001",false,
"a3a5f5e6-a135-11e9-9cda-0a87ae2ba916","a3a5f5e6-a135-11e9-9cda-0a87ae2ba916",,"classic","[]",true,41.85377981072743,"Halsted St & 21st St",11,-87.6466029882431,false,"13162",false,
"a3b2be3a-a135-11e9-9cda-0a87ae2ba916","a3b2be3a-a135-11e9-9cda-0a87ae2ba916",,"classic","[]",true,41.954468,"Milwaukee Ave & Cuyler Ave",11,-87.749594,false,"16991",false,
"a3b148bf-a135-11e9-9cda-0a87ae2ba916","a3b148bf-a135-11e9-9cda-0a87ae2ba916",,"classic","[]",true,41.880207,"Laramie Ave & Madison St",11,-87.755337,false,"540",false,
"a3b20960-a135-11e9-9cda-0a87ae2ba916","a3b20960-a135-11e9-9cda-0a87ae2ba916",,"classic","[]",true,41.800908,"Damen Ave & 51st St",7,-87.674684,false,"554",false,
"a3b29fae-a135-11e9-9cda-0a87ae2ba916","a3b29fae-a135-11e9-9cda-0a87ae2ba916",,"classic","[]",true,41.746559,"Stony Island Ave & 82nd St",11,-87.586005,false,"583",false,
"a3b23785-a135-11e9-9cda-0a87ae2ba916","a3b23785-a135-11e9-9cda-0a87ae2ba916",,"classic","[]",true,41.779374,"Ashland Ave & 63rd St",11,-87.664843,false,"16948",false,
"a3b13e66-a135-11e9-9cda-0a87ae2ba916","a3b13e66-a135-11e9-9cda-0a87ae2ba916",,"classic","[]",true,41.872131,"Cicero Ave & Flournoy St",11,-87.746619,false,"16912",false,
"a3addda0-a135-11e9-9cda-0a87ae2ba916","a3addda0-a135-11e9-9cda-0a87ae2ba916",,"classic","[]",true,41.848193,"Kedzie Ave & 24th St",11,-87.705412,false,"KA1504000086",false,
"a3b13836-a135-11e9-9cda-0a87ae2ba916","a3b13836-a135-11e9-9cda-0a87ae2ba916",,"classic","[]",true,41.88042,"Kenton Ave & Madison St",11,-87.74108,false,"537",false,
"a3b1fa1c-a135-11e9-9cda-0a87ae2ba916","a3b1fa1c-a135-11e9-9cda-0a87ae2ba916",,"classic","[]",true,41.808227,"Hoyne Ave & 47th St",11,-87.67718,false,"KA1504000091",false,
"a3b10a40-a135-11e9-9cda-0a87ae2ba916","a3b10a40-a135-11e9-9cda-0a87ae2ba916",,"classic","[]",true,41.885409,"Pulaski Rd & Lake St",11,-87.726491,false,"528",false,
"1966307477149012058","1966307477149012058",,"classic","[]",false,41.79375,"Mozart St & 55th St",11,-87.69472,false,"24267",false,
"1866477298337982542","1866477298337982542",,"classic","[]",false,41.910077,"Leavitt St/North Ave",4,-87.682306,false,"PI00003",false,
"1866476559603607834","1866476559603607834",,"classic","[]",false,41.892401,"Streeter Dr/Grand Ave",4,-87.612388,false,"PI00002",false,
"1929121887488481484","1929121887488481484",,"classic","[]",true,41.9458348,"Major Ave & Addison St",11,-87.7691848,false,"23166",false,
"8995498f-1209-4b06-9317-01cd695b3b61","8995498f-1209-4b06-9317-01cd695b3b61",,"classic","[]",true,41.89102331025185,"Franklin St & Illinois St",11,-87.63547986745834,false,"RN-",false,
"a3b20e8a-a135-11e9-9cda-0a87ae2ba916","a3b20e8a-a135-11e9-9cda-0a87ae2ba916",,"classic","[]",true,41.803023,"Ashland Ave & 50th St",11,-87.664699,false,"16940",false,
"a3b35885-a135-11e9-9cda-0a87ae2ba916","a3b35885-a135-11e9-9cda-0a87ae2ba916",,"classic","[]",true,41.92459,"Keystone Ave & Fullerton Ave",11,-87.72785,false,"16010",false,
"a3a88a6d-a135-11e9-9cda-0a87ae2ba916","a3a88a6d-a135-11e9-9cda-0a87ae2ba916",,"classic","[]",true,41.956057,"Ashland Ave & Belle Plaine Ave",11,-87.668835,false,"13249",false,
"a3b4728f-a135-11e9-9cda-0a87ae2ba916","a3b4728f-a135-11e9-9cda-0a87ae2ba916",,"classic","[]",true,41.883073,"Racine Ave & Washington Blvd",11,-87.656952,false,"654",false,
"a3aca268-a135-11e9-9cda-0a87ae2ba916","a3aca268-a135-11e9-9cda-0a87ae2ba916",,"classic","[]",true,41.89046879243862,"Sacramento Blvd & Franklin Blvd",11,-87.70260751247406,false,"KA1504000113",false,
"a3b0eb93-a135-11e9-9cda-0a87ae2ba916","a3b0eb93-a135-11e9-9cda-0a87ae2ba916",,"classic","[]",true,42.019537,"Bosworth Ave & Howard St",11,-87.669563,false,"16806",false,
"c1f104db-9ee7-4999-bd4a-ddd766c75e04","c1f104db-9ee7-4999-bd4a-ddd766c75e04",,"classic","[]",true,41.7045750872071,"Burnham Greenway & 105th St",11,-87.52823173999786,false,"20222",false,
"a3add889-a135-11e9-9cda-0a87ae2ba916","a3add889-a135-11e9-9cda-0a87ae2ba916",,"classic","[]",true,41.8481,"Central Park Ave & 24th St",11,-87.715068,false,"15687",false,
"a3af2216-a135-11e9-9cda-0a87ae2ba916","a3af2216-a135-11e9-9cda-0a87ae2ba916",,"classic","[]",true,41.991178,"2112 W Peterson Ave",11,-87.683593,false,"KA1504000155",false,
"a3a9acc5-a135-11e9-9cda-0a87ae2ba916","a3a9acc5-a135-11e9-9cda-0a87ae2ba916",,"classic","[]",true,41.910044,"California Ave & North Ave",11,-87.697167,false,"13258",false,
"a3b0d6ec-a135-11e9-9cda-0a87ae2ba916","a3b0d6ec-a135-11e9-9cda-0a87ae2ba916",,"classic","[]",true,42.015963,"Clark St & Jarvis Ave",11,-87.675005,false,"517",false,
"a3b453f2-a135-11e9-9cda-0a87ae2ba916","a3b453f2-a135-11e9-9cda-0a87ae2ba916",,"classic","[]",true,41.77987,"Carpenter St & 63rd St",7,-87.650919,false,"18025",false,
"a3b42a3e-a135-11e9-9cda-0a87ae2ba916","a3b42a3e-a135-11e9-9cda-0a87ae2ba916",,"classic","[]",true,41.949923,"Bernard St & Elston Ave",11,-87.713949,false,"18016",false,
"61695579-2f75-4090-a071-c76079b5fb5d","61695579-2f75-4090-a071-c76079b5fb5d",,"classic","[]",true,41.765286,"Michigan Ave & 71st St",7,-87.621748,false,"651",false,
"a3b26084-a135-11e9-9cda-0a87ae2ba916","a3b26084-a135-11e9-9cda-0a87ae2ba916",,"classic","[]",true,41.758361,"Vernon Ave & 75th St",11,-87.614138,false,"571",false,
"a3b21de7-a135-11e9-9cda-0a87ae2ba916","a3b21de7-a135-11e9-9cda-0a87ae2ba916",,"classic","[]",true,41.792822,"Ashland Ave & Garfield Blvd",11,-87.664429,false,"16943",false,
"a3b46866-a135-11e9-9cda-0a87ae2ba916","a3b46866-a135-11e9-9cda-0a87ae2ba916",,"classic","[]",true,41.766,"Rhodes Ave & 71st St",11,-87.611726,false,"652",false,
"a3b22815-a135-11e9-9cda-0a87ae2ba916","a3b22815-a135-11e9-9cda-0a87ae2ba916",,"classic","[]",true,41.786833,"Marshfield Ave & 59th St",11,-87.666215,false,"560",false,
"a3b241df-a135-11e9-9cda-0a87ae2ba916","a3b241df-a135-11e9-9cda-0a87ae2ba916",,"classic","[]",true,41.774074,"Ashland Ave & 66th St",7,-87.663815,false,"16950",false,
"a3b25656-a135-11e9-9cda-0a87ae2ba916","a3b25656-a135-11e9-9cda-0a87ae2ba916",,"classic","[]",true,41.75916,"Woodlawn Ave & 75th St",11,-87.595751,false,"569",false,
"a3b26acf-a135-11e9-9cda-0a87ae2ba916","a3b26acf-a135-11e9-9cda-0a87ae2ba916",,"classic","[]",true,41.750794,"State St & 79th St",11,-87.624424,false,"573",false,
"1861588043429399408","1861588043429399408",,"classic","[]",true,41.997136,"McCormick Blvd & Devon Ave",11,-87.711217,false,"23101",false,
"a3a7d279-a135-11e9-9cda-0a87ae2ba916","a3a7d279-a135-11e9-9cda-0a87ae2ba916",,"classic","[]",true,41.849527,"Normal Ave & Archer Ave",11,-87.640591,false,"TA1308000014",false,
"a3af5804-a135-11e9-9cda-0a87ae2ba916","a3af5804-a135-11e9-9cda-0a87ae2ba916",,"classic","[]",true,42.01213227742,"Ridge Blvd & Touhy Ave",11,-87.6829126443,false,"RP-006",false,
"a3b10f66-a135-11e9-9cda-0a87ae2ba916","a3b10f66-a135-11e9-9cda-0a87ae2ba916",,"classic","[]",true,41.886841,"Cicero Ave & Lake St",11,-87.745261,false,"16903",false,
"a3adbedf-a135-11e9-9cda-0a87ae2ba916","a3adbedf-a135-11e9-9cda-0a87ae2ba916",,"classic","[]",true,41.86649278172,"Kedzie Ave & Roosevelt Rd",11,-87.7064961757,false,"15682",false,
"a3acd5b1-a135-11e9-9cda-0a87ae2ba916","a3acd5b1-a135-11e9-9cda-0a87ae2ba916",,"classic","[]",true,41.77938114228,"Halsted St & 63rd St",11,-87.6446208145,false,"KA1503000055",false,
"a3aa59bb-a135-11e9-9cda-0a87ae2ba916","a3aa59bb-a135-11e9-9cda-0a87ae2ba916",,"classic","[]",true,41.917805,"Leavitt St & Armitage Ave",11,-87.682437,false,"TA1309000029",false,
"1965904499533560722","1965904499533560722",,"classic","[]",false,41.77694,"University Ave & 65th St",11,-87.59842,false,"24376",false,
"a3b2b92c-a135-11e9-9cda-0a87ae2ba916","a3b2b92c-a135-11e9-9cda-0a87ae2ba916",,"classic","[]",true,41.743921,"South Chicago Ave & 83rd St",11,-87.575225,false,"588",false,
"a3b45e26-a135-11e9-9cda-0a87ae2ba916","a3b45e26-a135-11e9-9cda-0a87ae2ba916",,"classic","[]",true,41.768898,"Eggleston Ave & 69th St",11,-87.635876,false,"650",false,
"a3ac7978-a135-11e9-9cda-0a87ae2ba916","a3ac7978-a135-11e9-9cda-0a87ae2ba916",,"classic","[]",true,41.84163253965,"Loomis St & Archer Ave",11,-87.6574349533,false,"KA1503000040",false,
"a3b218cd-a135-11e9-9cda-0a87ae2ba916","a3b218cd-a135-11e9-9cda-0a87ae2ba916",,"classic","[]",true,41.794087,"Seeley Ave & Garfield Blvd",11,-87.675478,false,"557",false,
"1936566008041245278","1936566008041245278",,"classic","[]",true,42.0082,"Sacramento Ave & Lunt Ave",11,-87.70461,false,"24149",false,
"a3b1eaa7-a135-11e9-9cda-0a87ae2ba916","a3b1eaa7-a135-11e9-9cda-0a87ae2ba916",,"classic","[]",true,41.823613,"Morgan St & Pershing Rd",7,-87.650931,false,"16933",false,
"a3b1ff34-a135-11e9-9cda-0a87ae2ba916","a3b1ff34-a135-11e9-9cda-0a87ae2ba916",,"classic","[]",true,41.809719,"Ashland Ave & McDowell Ave",11,-87.663477,false,"16937",false,
"a3a57a52-a135-11e9-9cda-0a87ae2ba916","a3a57a52-a135-11e9-9cda-0a87ae2ba916",,"classic","[]",true,41.88318130597391,"Green St & Washington Blvd",11,-87.64872461557388,false,"13053",false,
"a3af624c-a135-11e9-9cda-0a87ae2ba916","a3af624c-a135-11e9-9cda-0a87ae2ba916",,"classic","[]",true,41.98366470886,"Budlong Woods Library",11,-87.6964225611,false,"15585",false,
"1850867138125484782","1850867138125484782",,"classic","[]",true,41.789381,"Woodlawn Ave & 58th St",11,-87.596479,false,"22002",false,
"1754781885939323186","1754781885939323186",,"classic","[]",true,41.780506,"Stony Island Ave & 63rd St",11,-87.586853,false,"653B",false,
"a3b1efd6-a135-11e9-9cda-0a87ae2ba916","a3b1efd6-a135-11e9-9cda-0a87ae2ba916",,"classic","[]",true,41.813996,"Marshfield Ave & 44th St",11,-87.666589,false,"549",false,
"a3ad7b51-a135-11e9-9cda-0a87ae2ba916","a3ad7b51-a135-11e9-9cda-0a87ae2ba916",,"classic","[]",true,41.79156801058,"DuSable Museum",11,-87.6078521774,false,"KA1503000075",false,
"a3ad42c3-a135-11e9-9cda-0a87ae2ba916","a3ad42c3-a135-11e9-9cda-0a87ae2ba916",,"classic","[]",true,41.80813391481,"Halsted St & 47th Pl",11,-87.6456165545,false,"KA1503000051",false,
"a3aa5ed1-a135-11e9-9cda-0a87ae2ba916","a3aa5ed1-a135-11e9-9cda-0a87ae2ba916",,"classic","[]",true,41.920082,"Damen Ave & Charleston St",11,-87.677855,false,"13288",false,
"a3b11993-a135-11e9-9cda-0a87ae2ba916","a3b11993-a135-11e9-9cda-0a87ae2ba916",,"classic","[]",true,41.887664,"Central Ave & Lake St",11,-87.765469,false,"16905",false,
"a3b29a90-a135-11e9-9cda-0a87ae2ba916","a3b29a90-a135-11e9-9cda-0a87ae2ba916",,"classic","[]",true,41.744531,"Phillips Ave & 83rd St",11,-87.56506,false,"582",false,
"a3b2810e-a135-11e9-9cda-0a87ae2ba916","a3b2810e-a135-11e9-9cda-0a87ae2ba916",,"classic","[]",true,41.751173,"Stony Island Ave & South Chicago Ave",11,-87.585337,false,"577",false,
"1932836901177930130","1932836901177930130",,"classic","[]",false,41.9924402,"Granville Ave & Pulaski Rd",11,-87.7289072,false,"24156",false,
"1958860132283810038","1958860132283810038",,"classic","[]",false,41.80385,"Kilbourn Ave & 49th St",11,-87.73566,false,"24258",false,
"a3af1cec-a135-11e9-9cda-0a87ae2ba916","a3af1cec-a135-11e9-9cda-0a87ae2ba916",,"classic","[]",true,41.99023602867,"Maplewood Ave & Peterson Ave",11,-87.6933696402,false,"KA1504000130",false,
"a3b128de-a135-11e9-9cda-0a87ae2ba916","a3b128de-a135-11e9-9cda-0a87ae2ba916",,"classic","[]",true,41.88085,"Karlov Ave & Madison St",11,-87.727907,false,"534",false,
"a3aaf7bc-a135-11e9-9cda-0a87ae2ba916","a3aaf7bc-a135-11e9-9cda-0a87ae2ba916",,"classic","[]",true,41.838198,"Emerald Ave & 31st St",11,-87.645143,false,"TA1309000055",false,
"a3b2b419-a135-11e9-9cda-0a87ae2ba916","a3b2b419-a135-11e9-9cda-0a87ae2ba916",,"classic","[]",true,41.743359762253235,"Wabash Ave & 83rd St",11,-87.62284398078917,false,"587",false,
"a3a3983e-a135-11e9-9cda-0a87ae2ba916","a3a3983e-a135-11e9-9cda-0a87ae2ba916",,"classic","[]",true,41.76663823695,"Jeffery Blvd & 71st St",11,-87.5764501141,false,"KA1503000018",false,
"a3ad9ad9-a135-11e9-9cda-0a87ae2ba916","a3ad9ad9-a135-11e9-9cda-0a87ae2ba916",,"classic","[]",true,41.7804056457,"Dorchester Ave & 63rd St",11,-87.5914159893,false,"KA1503000046",false,
"a3acfa38-a135-11e9-9cda-0a87ae2ba916","a3acfa38-a135-11e9-9cda-0a87ae2ba916",,"classic","[]",true,41.758768,"Yates Blvd & 75th St",11,-87.56644,false,"KA1503000024",false,
"a3acd078-a135-11e9-9cda-0a87ae2ba916","a3acd078-a135-11e9-9cda-0a87ae2ba916",,"classic","[]",true,41.79292964599,"Halsted St & 56th St",11,-87.6449900565,false,"KA1503000011",false,
"a3ae82e0-a135-11e9-9cda-0a87ae2ba916","a3ae82e0-a135-11e9-9cda-0a87ae2ba916",,"classic","[]",true,42.001785,"Warren Park West",11,-87.688829,false,"RP-001",false,
"a3b2dcf0-a135-11e9-9cda-0a87ae2ba916","a3b2dcf0-a135-11e9-9cda-0a87ae2ba916",,"classic","[]",true,41.73655301831962,"Wabash Ave & 87th St",11,-87.62264415621758,false,"595",false,
"a3ac4a7c-a135-11e9-9cda-0a87ae2ba916","a3ac4a7c-a135-11e9-9cda-0a87ae2ba916",,"classic","[]",true,41.7664929373,"Stony Island Ave & 71st St",11,-87.5864608775,false,"KA1503000045",false,
"a3b1db23-a135-11e9-9cda-0a87ae2ba916","a3b1db23-a135-11e9-9cda-0a87ae2ba916",,"classic","[]",true,41.877917,"Kostner Ave & Adams St",11,-87.735737,false,"545",false,
"a3a7a4fc-a135-11e9-9cda-0a87ae2ba916","a3a7a4fc-a135-11e9-9cda-0a87ae2ba916",,"classic","[]",true,41.809851,"MLK Jr Dr & 47th St",11,-87.616279,false,"TA1308000007",false,
"a3ada002-a135-11e9-9cda-0a87ae2ba916","a3ada002-a135-11e9-9cda-0a87ae2ba916",,"classic","[]",true,41.77372095205,"Cottage Grove Ave & 67th St",11,-87.60563486,false,"KA1503000031",false,
"1775509322900183222","1775509322900183222",,"classic","[]",true,41.884336,"Elizabeth St & Randolph St",11,-87.658902,false,"23001",false,
"a3b42f5f-a135-11e9-9cda-0a87ae2ba916","a3b42f5f-a135-11e9-9cda-0a87ae2ba916",,"classic","[]",true,41.914166,"Central Park Ave & Bloomingdale Ave",11,-87.716755,false,"18017",false,
"a3b2956a-a135-11e9-9cda-0a87ae2ba916","a3b2956a-a135-11e9-9cda-0a87ae2ba916",,"classic","[]",true,41.744615,"Commercial Ave & 83rd St",11,-87.551208,false,"TA1309000051",false,
"a3b4aa91-a135-11e9-9cda-0a87ae2ba916","a3b4aa91-a135-11e9-9cda-0a87ae2ba916",,"classic","[]",true,41.747363,"South Chicago Ave & Elliot Ave",7,-87.580046,false,"665",false,
"a3af9064-a135-11e9-9cda-0a87ae2ba916","a3af9064-a135-11e9-9cda-0a87ae2ba916",,"classic","[]",true,41.965875,"Manor Ave & Leland Ave",11,-87.700825,false,"KA1504000127",false,
"98fe78dc-4efa-4b39-a47c-0d94abcdb221","98fe78dc-4efa-4b39-a47c-0d94abcdb221",,"classic","[]",true,41.70999,"Ewing Ave & Burnham Greenway",11,-87.5355,false,"20223",false,
"a3b28b4a-a135-11e9-9cda-0a87ae2ba916","a3b28b4a-a135-11e9-9cda-0a87ae2ba916",,"classic","[]",true,41.75182,"Phillips Ave & 79th St",11,-87.565211,false,"579",false,
"a3b2659d-a135-11e9-9cda-0a87ae2ba916","a3b2659d-a135-11e9-9cda-0a87ae2ba916",,"classic","[]",true,41.756971,"State St & 76th St",11,-87.624621,false,"572",false,
"a3b0f5c9-a135-11e9-9cda-0a87ae2ba916","a3b0f5c9-a135-11e9-9cda-0a87ae2ba916",,"classic","[]",true,41.894887,"Austin Blvd & Chicago Ave",7,-87.774704,false,"16921",false,
"a3add365-a135-11e9-9cda-0a87ae2ba916","a3add365-a135-11e9-9cda-0a87ae2ba916",,"classic","[]",true,41.85353363213,"Kedzie Ave & 21st St",11,-87.7050730318,false,"15686",false,
"1951050538021341810","1951050538021341810",,"classic","[]",false,41.80781,"Lamon Ave & 47th St",11,-87.74569,false,"24253",false,
"a3afc858-a135-11e9-9cda-0a87ae2ba916","a3afc858-a135-11e9-9cda-0a87ae2ba916",,"classic","[]",true,41.946264,"Pulaski Rd & Eddy St",11,-87.731023,false,"KA1504000141",false,
"a3af9f99-a135-11e9-9cda-0a87ae2ba916","a3af9f99-a135-11e9-9cda-0a87ae2ba916",,"classic","[]",true,41.961041,"Albany Ave & Montrose Ave",11,-87.705866,false,"15621",false,
"1932128180709716638","1932128180709716638",,"classic","[]",false,41.8952089,"Monticello Ave & Chicago Ave",11,-87.7174329,false,"21301",false,
"a3ade2c3-a135-11e9-9cda-0a87ae2ba916","a3ade2c3-a135-11e9-9cda-0a87ae2ba916",,"classic","[]",true,41.84910969176,"California Ave & 23rd Pl",11,-87.6951398068,false,"15689",false,
"a3b0dc1f-a135-11e9-9cda-0a87ae2ba916","a3b0dc1f-a135-11e9-9cda-0a87ae2ba916",,"classic","[]",true,41.885502,"Conservatory Dr & Lake St",11,-87.716866,false,"518",false,
"a3ada52f-a135-11e9-9cda-0a87ae2ba916","a3ada52f-a135-11e9-9cda-0a87ae2ba916",,"classic","[]",true,41.78008063659,"MLK Jr Dr & 63rd St",11,-87.6159428567,false,"KA1503000053",false,
"a3b143aa-a135-11e9-9cda-0a87ae2ba916","a3b143aa-a135-11e9-9cda-0a87ae2ba916",,"classic","[]",true,41.877613,"Cicero Ave & Quincy St",11,-87.745405,false,"16913",false,
"a3a7b936-a135-11e9-9cda-0a87ae2ba916","a3a7b936-a135-11e9-9cda-0a87ae2ba916",,"classic","[]",true,41.794853,"Prairie Ave & Garfield Blvd",11,-87.618691,false,"TA1307000160",false,
"a3b43eb7-a135-11e9-9cda-0a87ae2ba916","a3b43eb7-a135-11e9-9cda-0a87ae2ba916",,"classic","[]",true,41.868563,"Western Ave & Fillmore St",11,-87.686234,false,"644",false,
"a3b24c1f-a135-11e9-9cda-0a87ae2ba916","a3b24c1f-a135-11e9-9cda-0a87ae2ba916",,"classic","[]",true,41.768938,"May St & 69th St",11,-87.652934,false,"567",false,
"a3ac9834-a135-11e9-9cda-0a87ae2ba916","a3ac9834-a135-11e9-9cda-0a87ae2ba916",,"classic","[]",true,41.89546530305,"Kedzie Ave & Chicago Ave",11,-87.7061278837,false,"KA1504000114",false,
"a3a781a6-a135-11e9-9cda-0a87ae2ba916","a3a781a6-a135-11e9-9cda-0a87ae2ba916",,"classic","[]",true,41.841707,"State St & 29th St",11,-87.626938,false,"13213",false,
"a3b1cf80-a135-11e9-9cda-0a87ae2ba916","a3b1cf80-a135-11e9-9cda-0a87ae2ba916",,"classic","[]",true,41.875806,"Laramie Ave & Gladys Ave",11,-87.755285,false,"543",false,
"a3ae78ab-a135-11e9-9cda-0a87ae2ba916","a3ae78ab-a135-11e9-9cda-0a87ae2ba916",,"classic","[]",true,42.00454962194,"Warren Park East",11,-87.6806661451,false,"RP-002",false,
"a3a96fd5-a135-11e9-9cda-0a87ae2ba916","a3a96fd5-a135-11e9-9cda-0a87ae2ba916",,"classic","[]",true,41.836208,"Rhodes Ave & 32nd St",11,-87.613533,false,"13215",false,
"a3b2c354-a135-11e9-9cda-0a87ae2ba916","a3b2c354-a135-11e9-9cda-0a87ae2ba916",,"classic","[]",true,41.953733,"Kilbourn Ave & Irving Park Rd",11,-87.740569,false,"590",false,
"a3b43478-a135-11e9-9cda-0a87ae2ba916","a3b43478-a135-11e9-9cda-0a87ae2ba916",,"classic","[]",true,41.894745,"Latrobe Ave & Chicago Ave",7,-87.756895,false,"642",false,
"a3b2044b-a135-11e9-9cda-0a87ae2ba916","a3b2044b-a135-11e9-9cda-0a87ae2ba916",,"classic","[]",true,41.80839,"Elizabeth St & 47th St",11,-87.656526,false,"553",false,
"a3aa54a0-a135-11e9-9cda-0a87ae2ba916","a3aa54a0-a135-11e9-9cda-0a87ae2ba916",,"classic","[]",true,41.943403,"Seeley Ave & Roscoe St",11,-87.679618,false,"13144",false,
"a3acc649-a135-11e9-9cda-0a87ae2ba916","a3acc649-a135-11e9-9cda-0a87ae2ba916",,"classic","[]",true,41.80183164049,"Halsted St & 51st St",11,-87.645213904,false,"KA1503000010",false,
"a3ad0ecb-a135-11e9-9cda-0a87ae2ba916","a3ad0ecb-a135-11e9-9cda-0a87ae2ba916",,"classic","[]",true,41.76571903697,"Cottage Grove Ave & 71st St",11,-87.604959713,false,"KA1503000003",false,
"a3b25b6d-a135-11e9-9cda-0a87ae2ba916","a3b25b6d-a135-11e9-9cda-0a87ae2ba916",,"classic","[]",true,41.75849,"Evans Ave & 75th St",7,-87.60641,false,"570",false,
"a3b12dfb-a135-11e9-9cda-0a87ae2ba916","a3b12dfb-a135-11e9-9cda-0a87ae2ba916",,"classic","[]",true,41.87441021003816,"Pulaski Rd & Congress Pkwy",11,-87.72609159350395,false,"535",false,
"a3ad66e6-a135-11e9-9cda-0a87ae2ba916","a3ad66e6-a135-11e9-9cda-0a87ae2ba916",,"classic","[]",true,41.79933626261,"Ellis Ave & 53rd St",11,-87.6009581145,false,"KA1503000052",false,
"a3a6de38-a135-11e9-9cda-0a87ae2ba916","a3a6de38-a135-11e9-9cda-0a87ae2ba916",,"classic","[]",true,41.907781,"Claremont Ave & Hirsch St",11,-87.685854,false,"13245",false,
"a3acdff9-a135-11e9-9cda-0a87ae2ba916","a3acdff9-a135-11e9-9cda-0a87ae2ba916",,"classic","[]",true,41.76906172032,"Halsted St & 69th St",11,-87.6446135779,false,"15597",false,
"a3ad327e-a135-11e9-9cda-0a87ae2ba916","a3ad327e-a135-11e9-9cda-0a87ae2ba916",,"classic","[]",true,41.819102,"Union Ave & Root St",11,-87.643278,false,"KA1503000032",false,
"a3a7aa0e-a135-11e9-9cda-0a87ae2ba916","a3a7aa0e-a135-11e9-9cda-0a87ae2ba916",,"classic","[]",true,41.82168,"Indiana Ave & 40th St",11,-87.6216,false,"13083",false,
"a3a80009-a135-11e9-9cda-0a87ae2ba916","a3a80009-a135-11e9-9cda-0a87ae2ba916",,"classic","[]",true,41.856802,"Wells St & 19th St",11,-87.633879,false,"SL-006",false,
"a3b27bcf-a135-11e9-9cda-0a87ae2ba916","a3b27bcf-a135-11e9-9cda-0a87ae2ba916",,"classic","[]",true,41.75132,"Greenwood Ave & 79th St",11,-87.595982,false,"576",false,
"a3aad436-a135-11e9-9cda-0a87ae2ba916","a3aad436-a135-11e9-9cda-0a87ae2ba916",,"classic","[]",true,41.93314,"Burling St & Diversey Pkwy",11,-87.64776,false,"TA1309000036",false,
"1879438378503419960","1879438378503419960",,"classic","[]",false,41.9881174,"Richmond St & Lincoln Ave",11,-87.7031754,false,"21452",false,
"a3b1f4fb-a135-11e9-9cda-0a87ae2ba916","a3b1f4fb-a135-11e9-9cda-0a87ae2ba916",,"classic","[]",true,41.894958,"Central Ave & Chicago Ave",11,-87.764902,false,"16920",false,
"a3b213af-a135-11e9-9cda-0a87ae2ba916","a3b213af-a135-11e9-9cda-0a87ae2ba916",,"classic","[]",true,41.799659,"Throop St & 52nd St",7,-87.657195,false,"556",false,
"a3b4497a-a135-11e9-9cda-0a87ae2ba916","a3b4497a-a135-11e9-9cda-0a87ae2ba916",,"classic","[]",true,41.796642,"State St & 54th St",11,-87.625923,false,"646",false,
"a3b2a9e7-a135-11e9-9cda-0a87ae2ba916","a3b2a9e7-a135-11e9-9cda-0a87ae2ba916",,"classic","[]",true,41.743441,"Cottage Grove Ave & 83rd St",11,-87.604836,false,"585",false,
"a3aa017e-a135-11e9-9cda-0a87ae2ba916","a3aa017e-a135-11e9-9cda-0a87ae2ba916",,"classic","[]",true,41.957081,"Southport Ave & Clark St",11,-87.664199,false,"TA1308000047",false,
"1936565171921396140","1936565171921396140",,"classic","[]",true,42.00404,"Sacramento Ave & Pratt Blvd",11,-87.70473,false,"24147",false,
"a3adaa52-a135-11e9-9cda-0a87ae2ba916","a3adaa52-a135-11e9-9cda-0a87ae2ba916",,"classic","[]",true,41.784071072761,"Eberhart Ave & 61st St",11,-87.61448353528975,false,"KA1503000033",false,
"1879441011318372516","1879441011318372516",,"classic","[]",true,41.741966,"Scottsdale Park",11,-87.736179,false,"23113",false,
"a3ad5764-a135-11e9-9cda-0a87ae2ba916","a3ad5764-a135-11e9-9cda-0a87ae2ba916",,"classic","[]",true,41.80229465088,"Calumet Ave & 51st St",11,-87.6180535802,false,"15470",false,
"a3ade7de-a135-11e9-9cda-0a87ae2ba916","a3ade7de-a135-11e9-9cda-0a87ae2ba916",,"classic","[]",true,41.84453112462163,"Millard Ave & 26th St",7,-87.71592199802399,false,"KA1504000110",false,
"1879442377117973296","1879442377117973296",,"classic","[]",true,41.742805,"Dan Ryan Woods & 83rd St",11,-87.680177,false,"23123",false,
"a3accb60-a135-11e9-9cda-0a87ae2ba916","a3accb60-a135-11e9-9cda-0a87ae2ba916",,"classic","[]",true,41.794982,"Princeton Ave & Garfield Blvd",11,-87.633124,false,"KA1503000013",false,
"a3ae8d13-a135-11e9-9cda-0a87ae2ba916","a3ae8d13-a135-11e9-9cda-0a87ae2ba916",,"classic","[]",true,41.99416136902,"Western Ave & Granville Ave",11,-87.689438282,false,"KA1504000129",false,
"8a677aec-442b-47b8-aff7-50852e1d26c0","8a677aec-442b-47b8-aff7-50852e1d26c0",,"classic","[]",true,41.69239474587557,"Kedzie Ave & 110th St",11,-87.70096063613892,false,"20204",false,
"a3a43a25-a135-11e9-9cda-0a87ae2ba916","a3a43a25-a135-11e9-9cda-0a87ae2ba916",,"classic","[]",true,41.852619,"Wabash Ave & Cermak Rd",11,-87.626488,false,"TA1305000001",false,
"1954768541828039308","1954768541828039308",,"classic","[]",false,41.8235109,"Kedzie Ave & 38th St",11,-87.7041017,false,"24240",false,
"a3aded13-a135-11e9-9cda-0a87ae2ba916","a3aded13-a135-11e9-9cda-0a87ae2ba916",,"classic","[]",true,41.844507,"Albany Ave & 26th St",11,-87.701655,false,"15691",false,
"a3a71b0a-a135-11e9-9cda-0a87ae2ba916","a3a71b0a-a135-11e9-9cda-0a87ae2ba916",,"classic","[]",true,41.855136,"May St & Cullerton St",11,-87.654127,false,"13331",false,
"1929516918167933834","1929516918167933834",,"classic","[]",true,42.0120368,"California Ave & Touhy Ave",11,-87.7004371,false,"24151",false,
"a3b443ce-a135-11e9-9cda-0a87ae2ba916","a3b443ce-a135-11e9-9cda-0a87ae2ba916",,"classic","[]",true,41.826712,"Archer (Damen) Ave & 37th St",11,-87.683144,false,"18022",false,
"1989675458983138282","1989675458983138282",,"classic","[]",false,41.81644,"Pulaski Rd & Ann Lurie Pl",11,-87.7248,false,"21340",false,
"a3b1330c-a135-11e9-9cda-0a87ae2ba916","a3b1330c-a135-11e9-9cda-0a87ae2ba916",,"classic","[]",true,41.885928,"Kostner Ave & Lake St",11,-87.73541,false,"536",false,
"a3ae687f-a135-11e9-9cda-0a87ae2ba916","a3ae687f-a135-11e9-9cda-0a87ae2ba916",,"classic","[]",true,41.8436799145765,"California Ave & 26th St",11,-87.69496858119965,false,"15692",false,
"1859027847673133268","1859027847673133268",,"classic","[]",true,41.968204,"Monticello Ave & Lawrence Ave",11,-87.719547,false,"23108",false,
"a3aff10c-a135-11e9-9cda-0a87ae2ba916","a3aff10c-a135-11e9-9cda-0a87ae2ba916",,"classic","[]",true,41.939408,"Avers Ave & Belmont Ave",11,-87.723574,false,"15640",false,
"a3a54cdb-a135-11e9-9cda-0a87ae2ba916","a3a54cdb-a135-11e9-9cda-0a87ae2ba916",,"classic","[]",true,41.77345849948,"Stony Island Ave & 67th St",11,-87.5853397391,false,"KA1503000023",false,
"a3ad37c2-a135-11e9-9cda-0a87ae2ba916","a3ad37c2-a135-11e9-9cda-0a87ae2ba916",,"classic","[]",true,41.81620767856,"Shields Ave & 43rd St",11,-87.6348193497,false,"KA1503000001",false,
"a3af71a9-a135-11e9-9cda-0a87ae2ba916","a3af71a9-a135-11e9-9cda-0a87ae2ba916",,"classic","[]",true,41.975672,"Kedzie Ave & Foster Ave",11,-87.709261,false,"KA1504000128",false,
"a3adc3f6-a135-11e9-9cda-0a87ae2ba916","a3adc3f6-a135-11e9-9cda-0a87ae2ba916",,"classic","[]",true,41.866624,"Fairfield Ave & Roosevelt Rd",11,-87.694521,false,"KA1504000102",false,
"a3adb48a-a135-11e9-9cda-0a87ae2ba916","a3adb48a-a135-11e9-9cda-0a87ae2ba916",,"classic","[]",true,41.87359967462,"Kedzie Ave & Harrison St",11,-87.7048707493,false,"KA1504000082",false,
"a3b11ea4-a135-11e9-9cda-0a87ae2ba916","a3b11ea4-a135-11e9-9cda-0a87ae2ba916",,"classic","[]",true,41.88794379427211,"Austin Blvd & Lake St",11,-87.77427345514297,false,"16906",false,
"a3b2767f-a135-11e9-9cda-0a87ae2ba916","a3b2767f-a135-11e9-9cda-0a87ae2ba916",,"classic","[]",true,41.753174,"Cottage Grove Ave & 78th St",11,-87.605026,false,"575",false,
"a3a98e37-a135-11e9-9cda-0a87ae2ba916","a3a98e37-a135-11e9-9cda-0a87ae2ba916",,"classic","[]",true,41.7586696704,"Stony Island Ave & 75th St",11,-87.586882871,false,"KA1503000019",false,
"a3a9984a-a135-11e9-9cda-0a87ae2ba916","a3a9984a-a135-11e9-9cda-0a87ae2ba916",,"classic","[]",true,41.838842,"Indiana Ave & 31st St",11,-87.621857,false,"TA1308000036",false,
"a3acf4eb-a135-11e9-9cda-0a87ae2ba916","a3acf4eb-a135-11e9-9cda-0a87ae2ba916",,"classic","[]",true,41.75712006802,"Jeffery Blvd & 76th St",11,-87.5758393587,false,"KA1503000028",false,
"a3b26fee-a135-11e9-9cda-0a87ae2ba916","a3b26fee-a135-11e9-9cda-0a87ae2ba916",,"classic","[]",true,41.75094,"Vernon Ave & 79th St",11,-87.61379,false,"574",false,
"a3ace51b-a135-11e9-9cda-0a87ae2ba916","a3ace51b-a135-11e9-9cda-0a87ae2ba916",,"classic","[]",true,41.76929308995,"Perry Ave & 69th St",11,-87.6281959291,false,"KA1503000047",false,
"ee925757-31ce-41ad-9bb7-73b1bb363616","ee925757-31ce-41ad-9bb7-73b1bb363616",,"classic","[]",true,41.717878301935,"Bradley Park",11,-87.56459176540375,false,"20227",false,
"a3b0ccad-a135-11e9-9cda-0a87ae2ba916","a3b0ccad-a135-11e9-9cda-0a87ae2ba916",,"classic","[]",true,42.019276,"Ridge Blvd & Howard St",11,-87.68452,false,"514",false,
"a3b0fff9-a135-11e9-9cda-0a87ae2ba916","a3b0fff9-a135-11e9-9cda-0a87ae2ba916",,"classic","[]",true,42.012342,"Oakley Ave & Touhy Ave",11,-87.688243,false,"RP-004",false,
"a3b3a0c8-a135-11e9-9cda-0a87ae2ba916","a3b3a0c8-a135-11e9-9cda-0a87ae2ba916",,"classic","[]",true,41.890028,"Orleans St & Hubbard St",11,-87.636618,false,"636",false,
"a3a762a1-a135-11e9-9cda-0a87ae2ba916","a3a762a1-a135-11e9-9cda-0a87ae2ba916",,"classic","[]",true,41.917741,"Stave St & Armitage Ave",11,-87.691392,false,"13266",false,
"a3b0e141-a135-11e9-9cda-0a87ae2ba916","a3b0e141-a135-11e9-9cda-0a87ae2ba916",,"classic","[]",true,42.016977,"Wolcott Ave & Fargo Ave",11,-87.677725,false,"519",false,
"a3b2a4ca-a135-11e9-9cda-0a87ae2ba916","a3b2a4ca-a135-11e9-9cda-0a87ae2ba916",,"classic","[]",true,41.744123,"Ellis Ave & 83rd St",11,-87.599034,false,"584",false,
"1887668523852444498","1887668523852444498",,"classic","[]",true,41.942427,"Cicero Ave & Roscoe Ave",11,-87.747315,false,"23165",false,
"a3b1e588-a135-11e9-9cda-0a87ae2ba916","a3b1e588-a135-11e9-9cda-0a87ae2ba916",,"classic","[]",true,41.823465,"Ashland Ave & Pershing Rd",11,-87.665577,false,"16932",false,
"a3ac88db-a135-11e9-9cda-0a87ae2ba916","a3ac88db-a135-11e9-9cda-0a87ae2ba916",,"classic","[]",true,41.83010465416,"Wood St & 35th St",11,-87.6702983089,false,"KA1503000066",false,
"a3b2513d-a135-11e9-9cda-0a87ae2ba916","a3b2513d-a135-11e9-9cda-0a87ae2ba916",,"classic","[]",true,41.75797,"Vincennes Ave & 75th St",7,-87.63121,false,"16953",false,
"a3b1ca28-a135-11e9-9cda-0a87ae2ba916","a3b1ca28-a135-11e9-9cda-0a87ae2ba916",,"classic","[]",true,41.880121,"Central Ave & Madison St",11,-87.763238,false,"16916",false,
"a3b4590f-a135-11e9-9cda-0a87ae2ba916","a3b4590f-a135-11e9-9cda-0a87ae2ba916",,"classic","[]",true,41.779835,"Stewart Ave & 63rd St",11,-87.634774,false,"649",false,
"a3b44eba-a135-11e9-9cda-0a87ae2ba916","a3b44eba-a135-11e9-9cda-0a87ae2ba916",,"classic","[]",true,41.789696880483376,"Racine Ave & 57th St",7,-87.65469789505005,false,"647",false,
"a3b123c5-a135-11e9-9cda-0a87ae2ba916","a3b123c5-a135-11e9-9cda-0a87ae2ba916",,"classic","[{""docks_availability"":""UNLIMITED"",""off_dock_remaining_bike_capacity"":0,""service_type"":""ATTENDED_SERVICE"",""bikes_availability"":""UNLIMITED"",""id"":""a3b123c5-a135-11e9-9cda-0a87ae2ba916"",""off_dock_bikes_count"":0,""name"":""Valet Service"",""description"":""""}]",true,41.875679,"Central Park Blvd & 5th Ave",11,-87.71547,false,"16907",false,
"a3b2cd97-a135-11e9-9cda-0a87ae2ba916","a3b2cd97-a135-11e9-9cda-0a87ae2ba916",,"classic","[]",true,41.960631,"Knox Ave & Montrose Ave",11,-87.745359,false,"592",false,
"a3b39bb0-a135-11e9-9cda-0a87ae2ba916","a3b39bb0-a135-11e9-9cda-0a87ae2ba916",,"classic","[]",true,41.895748,"Fairbanks St & Superior St",11,-87.620104,false,"18003",false,
"1879439147302566804","1879439147302566804",,"classic","[]",true,41.749119,"Columbus Ave & 79th St",11,-87.704263,false,"23128",false,
"a3b0b801-a135-11e9-9cda-0a87ae2ba916","a3b0b801-a135-11e9-9cda-0a87ae2ba916",,"classic","[]",true,41.90270659438,"Spaulding Ave & Division St",11,-87.709219571,false,"15654",false,
"a3b2af02-a135-11e9-9cda-0a87ae2ba916","a3b2af02-a135-11e9-9cda-0a87ae2ba916",,"classic","[]",true,41.743116,"MLK Jr Dr & 83rd St",11,-87.6148,false,"586",false,
"a3ad09b2-a135-11e9-9cda-0a87ae2ba916","a3ad09b2-a135-11e9-9cda-0a87ae2ba916",,"classic","[]",true,41.76218896038,"South Shore Dr & 74th St",11,-87.55927465,false,"KA1503000020",false,
"a3b1e065-a135-11e9-9cda-0a87ae2ba916","a3b1e065-a135-11e9-9cda-0a87ae2ba916",,"classic","[]",true,41.823192,"Damen Ave & Pershing Rd",11,-87.676597,false,"546",false,
"a3afebff-a135-11e9-9cda-0a87ae2ba916","a3afebff-a135-11e9-9cda-0a87ae2ba916",,"classic","[]",true,41.96110801623,"Keystone Ave & Montrose Ave",11,-87.7289701012,false,"KA1504000164",false,
"a3a639f5-a135-11e9-9cda-0a87ae2ba916","a3a639f5-a135-11e9-9cda-0a87ae2ba916",,"classic","[]",true,41.8349,"Calumet Ave & 33rd St",11,-87.61793,false,"13217",false,
"a3a99346-a135-11e9-9cda-0a87ae2ba916","a3a99346-a135-11e9-9cda-0a87ae2ba916",,"classic","[]",true,41.816499,"Cottage Grove Ave & 43rd St",11,-87.606582,false,"TA1308000023",false,
"a3ae6e48-a135-11e9-9cda-0a87ae2ba916","a3ae6e48-a135-11e9-9cda-0a87ae2ba916",,"classic","[]",true,41.84151770807,"Western Ave & 28th St",11,-87.6851314409,false,"KA1504000168",false,
"a3b23263-a135-11e9-9cda-0a87ae2ba916","a3b23263-a135-11e9-9cda-0a87ae2ba916",,"classic","[]",true,41.783189,"Racine Ave & 61st St",11,-87.654372,false,"562",false,
"a3ad47f8-a135-11e9-9cda-0a87ae2ba916","a3ad47f8-a135-11e9-9cda-0a87ae2ba916",,"classic","[]",true,41.80931770924,"Princeton Ave & 47th St",11,-87.633449288,false,"KA1503000009",false,
"a3afe1dc-a135-11e9-9cda-0a87ae2ba916","a3afe1dc-a135-11e9-9cda-0a87ae2ba916",,"classic","[]",true,41.943034,"Western Ave & Roscoe St",11,-87.687288,false,"15634",false,
"a3a7e69e-a135-11e9-9cda-0a87ae2ba916","a3a7e69e-a135-11e9-9cda-0a87ae2ba916",,"classic","[]",true,41.910533,"Leavitt St & North Ave",11,-87.682308,false,"TA1308000005",false,
"1806753657092916066","1806753657092916066",,"lightweight","[]",false,41.983008,"Public Rack - Northwest Hwy & Bryn Mawr",2,-87.782634,false,,false,"5611 N Northwest Hwy, Chicago, IL 60646, United States"
"1674190368396028570","1674190368396028570",,"lightweight","[]",false,41.705247,"Public Rack - Kedzie & 103rd St - W",1,-87.701424,false,,false,"DeJay's Ace Hardware, 10340, South Kedzie Avenue, Mount Greenwood, Chicago, Lake Township, Cook County, Illinois, 60655, United States"
"1674190334036290134","1674190334036290134",,"lightweight","[]",false,41.801089,"Public Rack - Harold Washington Park",3,-87.584791,false,,false,"Congregation Rodfei Zedek, 5200, South Hyde Park Boulevard, Hyde Park, Chicago, Hyde Park Township, Cook County, Illinois, 60615, United States"
"1806749752967643692","1806749752967643692",,"lightweight","[]",false,41.9910862,"Public Rack - Pulaski Rd & Stevens Ave",2,-87.729231,false,,false,"6026 N Pulaski Rd, Chicago, IL 60646, United States"
"1677249819534170180","1677249819534170180",,"lightweight","[]",false,41.737054,"Public Rack - East End Ave & 87th St",1,-87.583998,false,,false,"Walgreens, 1616, East 87th Street, Calumet Heights, Avalon Park, Chicago, Hyde Park Township, Cook County, Illinois, 60617, United States"
"1677249793764366376","1677249793764366376",,"lightweight","[]",false,41.655139,"Public Rack - Ellis Ave & 132nd Pl",1,-87.597597,false,,false,"967-989, East 132nd Place, Altgeld Gardens, Riverdale, Chicago, Hyde Park Township, Cook County, Illinois, 60827, United States"
"1594046405283107528","1594046405283107528",,"lightweight","[]",false,41.859228,"California & 16th St",9,-87.695562,false,,false,"2751, West 16th Street, North Lawndale, Chicago, Cook County, Illinois, 60608, United States"
"1674190226662107536","1674190226662107536",,"lightweight","[]",false,41.9326579,"Public Rack - Central Ave & George St",1,-87.7662058,false,,false,"Family Dollar, 2845, North Central Avenue, Beat 2514, Belmont Cragin, Chicago, Jefferson Township, Cook County, Illinois, 60634, United States"
"1677249858188875900","1677249858188875900",,"lightweight","[]",false,41.794886,"Public Rack - Calumet Ave & Garfield Blvd",1,-87.617415,false,,false,"Amstar, 370, East Garfield Boulevard, Washington Park, Chicago, Hyde Park Township, Cook County, Illinois, 60615, United States"
"1674190527309818774","1674190527309818774",,"lightweight","[]",false,41.923604,"Public Rack - Neva Ave & Grand Ave",1,-87.804659,false,,false,"7153-7155, West Grand Avenue, Beat 2512, Montclare, Chicago, Jefferson Township, Cook County, Illinois, 60707, United States"
"1806749718607905164","1806749718607905164",,"lightweight","[]",false,41.7417227,"Public Rack - 83rd Pl & Kedzie Ave N",2,-87.702287,false,,false,"8324 S Kedzie Ave, Chicago, IL 60652, United States"
"1695780074116615022","1695780074116615022",,"lightweight","[]",false,41.988931,"Public Rack - Richmond St & Thorndale Ave",10,-87.702785,false,,false,"5930, North Richmond Street, West Ridge, Chicago, Jefferson Township, Cook County, Illinois, 60645, United States"
"1715846718385914742","1715846718385914742",,"lightweight","[]",false,41.759735,"Public Rack - Ashland Ave & 74th St",2,-87.663736,false,,false,"South Ashland Avenue, West Englewood, Chicago, Lake Township, Cook County, Illinois, 60620, United States"
"1677249875368745118","1677249875368745118",,"lightweight","[]",false,41.69868,"Public Rack - Pullman - Ross Dress for Less",1,-87.597,false,,false,"10800-10830, South Doty Avenue, Pullman, Chicago, Hyde Park Township, Cook County, Illinois, 60628, United States"
"1683527933580884970","1683527933580884970",,"lightweight","[]",false,41.783745,"Public Rack - Eberhart Ave & 61st St",1,-87.612919,false,,false,"501-511, East 61st Street, Woodlawn, Washington Park, Chicago, Hyde Park Township, Cook County, Illinois, 60637, United States"
"1575949515273532128","1575949515273532128",,"lightweight","[]",false,41.8989108,"Central Park & Augusta Blvd",9,-87.7164901,false,,false,"956-958, North Central Park Avenue, Humboldt Park, Chicago, Cook County, Illinois, 60651, United States"
"1673852313397164648","1673852313397164648",,"lightweight","[]",false,42.011865,"Public Rack - Francisco Ave & Touhy Ave",2,-87.701317,false,,false,"2839, West Touhy Avenue, West Ridge, Chicago, Rogers Park Township, Cook County, Illinois, 60645, United States"
"1674190664748772496","1674190664748772496",,"lightweight","[]",false,41.69197,"Public Rack - Western Ave & 111th St - NW",1,-87.681659,false,,false,"2406, West 111th Street, Morgan Park, Chicago, Lake Township, Cook County, Illinois, 60655, United States"
"1806749731492807130","1806749731492807130",,"lightweight","[]",false,41.9546801,"Public Rack - Milwaukee Ave & Culyer Ave",2,-87.7494235,false,,false,"4068 N Milwaukee Ave, Chicago, IL 60641, United States"
"1582242289567815212","1582242289567815212",,"lightweight","[]",false,41.775144,"Homan Ave & 65th St",9,-87.708129,false,,false,"Eberhart Elementary School, West 65th Place, Chicago Lawn, Chicago, Lake Township, Cook County, Illinois, 60629, United States"
"1806749718607905152","1806749718607905152",,"lightweight","[]",false,41.7381,"Public Rack - Pulaski Rd & 85th St",2,-87.721721,false,,false,"8512 S Pulaski Rd, Chicago, IL 60652, United States"
"1806753652797948736","1806753652797948736",,"lightweight","[]",false,41.968214,"Public Rack - Monticello & Lawrence",2,-87.719541,false,,false,"3633 W Lawrence Ave, Chicago, IL 60625, United States"
"1674190342626224740","1674190342626224740",,"lightweight","[]",false,41.691578,"Public Rack - Homan Ave & 111th St",1,-87.705842,false,,false,"3400-3402, West 111th Street, Mount Greenwood, Chicago, Lake Township, Cook County, Illinois, 60655, United States"
"1806749748672676376","1806749748672676376",,"lightweight","[]",false,41.9911458,"Public Rack - Nina Ave & Avondale Ave",2,-87.7991043,false,,false,"6046 N Avondale Ave, Chicago, IL 60631, United States"
"1806749727197839826","1806749727197839826",,"lightweight","[]",false,41.952869,"Public Rack - Irving Park Rd & Melvina Ave",4,-87.780728,false,,false,"6141 W Irving Park Rd, Chicago, IL 60634, United States"
"1827474409018810992","1827474409018810992",,"lightweight","[]",false,41.75486,"Public Rack - Richard Daley College",3,-87.72364,false,,false,"4100 W 76th St, Chicago, IL 60652, United States"
"1582242319632586320","1582242319632586320",,"lightweight","[]",false,41.8154913,"Archer Ave & 43rd St",6,-87.7024412,false,,false,"3114, West Pope John Paul II Drive, Brighton Park, Chicago, Lake Township, Cook County, Illinois, 60632, United States"
"1674190299676551700","1674190299676551700",,"lightweight","[]",false,41.7215552,"Public Rack - Ewing Ave & 96th St N",1,-87.5356904,false,,false,"Saint George Catholic Church, 9546, South Ewing Avenue, East Side, Chicago, Hyde Park Township, Cook County, Illinois, 60617, United States"
"1594046370923369112","1594046370923369112",,"lightweight","[]",false,41.899578,"Campbell Ave & Augusta Blvd",9,-87.689497,false,,false,"2500, West Augusta Boulevard, Ukrainian Village, West Town, Chicago, Cook County, Illinois, 60651, United States"
"1715846705501012842","1715846705501012842",,"lightweight","[]",false,41.8662123,"Public Rack - Independence Blvd & Roosevelt",1,-87.7184969,false,,false,"3711-3719, West Roosevelt Road, North Lawndale, Chicago, Cook County, Illinois, 60624, United States"
"1674190398460799668","1674190398460799668",,"lightweight","[]",false,41.822897,"Public Rack - Kedzie Ave & Pershing Rd",1,-87.704154,false,,false,"3847, South Kedzie Avenue, Corwith, Brighton Park, Chicago, Cook County, Illinois, 60632, United States"
"1674190501540014956","1674190501540014956",,"lightweight","[]",false,41.94651,"Public Rack - Milwaukee Ave & Addison St",3,-87.735721,false,,false,"Schurz High School, West Waveland Avenue, Irving Park, Chicago, Jefferson Township, Cook County, Illinois, 60641, United States"
"1674190660453805190","1674190660453805190",,"lightweight","[]",false,41.704366,"Public Rack - Western Ave & 104th St - East",2,-87.681733,false,,false,"10400-10402, South Western Avenue, Beverly, Chicago, Lake Township, Cook County, Illinois, 60643, United States"
"1806753652797948744","1806753652797948744",,"lightweight","[]",false,41.985317,"Public Rack - Mulligan & Northwest Hwy",2,-87.786721,false,,false,"5706 N Northwest Hwy, Chicago, IL 60646, United States"
"1677249879663712418","1677249879663712418",,"lightweight","[]",false,41.69782,"Public Rack - Pullman - Planet Fitness",1,-87.59779,false,,false,"10800-10830, South Doty Avenue, Pullman, Chicago, Hyde Park Township, Cook County, Illinois, 60628, United States"
"1594046465420805300","1594046465420805300",,"lightweight","[]",false,41.9867636,"Western Ave & Ardmore Ave",9,-87.6898796,false,,false,"5754, North Western Avenue, West Ridge, Chicago, Jefferson Township, Cook County, Illinois, 60645, United States"
"1674190527309818776","1674190527309818776",,"lightweight","[]",false,41.949269,"Public Rack - New England Ave & Grace St",1,-87.798395,false,,false,"3805, North New England Avenue, Dunning, Chicago, Jefferson Township, Cook County, Illinois, 60634, United States"
"1674190419935636184","1674190419935636184",,"lightweight","[]",false,41.743616,"Public Rack - King Dr & 83rd St",1,-87.61457,false,,false,"KFC, 8307, South Doctor Martin Luther King Junior Drive, Garden Homes, Chatham, Chicago, Hyde Park Township, Cook County, Illinois, 60619, United States"
"1674190441410472714","1674190441410472714",,"lightweight","[]",false,41.887083,"Public Rack - Latrobe Ave & Lake St",1,-87.756181,false,,false,"336-346, North Laramie Avenue, Austin, Chicago, Cook County, Illinois, 60651, United States"
"1695776990330095648","1695776990330095648",,"lightweight","[]",false,41.73715,"Public Rack - Clyde Ave & 87th St",3,-87.57319,false,,false,"Chicago Vocational High School, 2100, East 87th Street, Calumet Heights, Avalon Park, Chicago, Hyde Park Township, Cook County, Illinois, 60617, United States"
"1806753644208014082","1806753644208014082",,"lightweight","[]",false,41.977814,"Public Rack - Harlem & Summerdale",2,-87.80681,false,,false,"5321 N Harlem Ave, Chicago, IL 60656, United States"
"1674190647568903270","1674190647568903270",,"lightweight","[]",false,41.706205,"Public Rack - Walden Pkwy & 103rd St",1,-87.668965,false,,false,"103rd Street - Beverly Hills, 10301, South Walden Parkway, Beverly, Chicago, Lake Township, Cook County, Illinois, 60643, United States"
"1563698679731458032","1563698679731458032",,"lightweight","[]",false,41.9237918,"Fullerton & Monitor",9,-87.7723116,false,,false,"5835-5841, West Fullerton Avenue, Hanson Park, Beat 2515, Belmont Cragin, Chicago, Jefferson Township, Cook County, Illinois, 690639, United States"
"1674190278201715172","1674190278201715172",,"lightweight","[]",false,41.808884,"Public Rack - Damen Ave & 47th St",1,-87.67513,false,,false,"Burger King, 2000, West 47th Street, New City, Chicago, Lake Township, Cook County, Illinois, 60609, United States"
"1674190273906747872","1674190273906747872",,"lightweight","[]",false,41.727319,"Public Rack - Cottage Grove Ave & 92nd St",1,-87.604787,false,,false,"9200-9204, South Cottage Grove Avenue, Dauphin Park, Chatham, Chicago, Hyde Park Township, Cook County, Illinois, 60619, United States"
"1674190600324262928","1674190600324262928",,"lightweight","[]",false,41.8560219,"Public Rack - Roswell B. Mason Elementary School",4,-87.7298436,false,,false,"Mason Elementary School, West 19th Street, North Lawndale, Chicago, Cook County, Illinois, 60623, United States"
"1683527974474827792","1683527974474827792",,"lightweight","[]",false,41.779484,"Public Rack - Woodlawn Ave & 63rd St S",1,-87.596028,false,,false,"Woodlawn Health Center, 6337, South Woodlawn Avenue, Woodlawn, Chicago, Hyde Park Township, Cook County, Illinois, 60637, United States"
"1674190419935636190","1674190419935636190",,"lightweight","[]",false,41.786049,"Public Rack - Komensky Ave & 59th St",1,-87.723645,false,,false,"Walgreens, 4000, West 59th Street, West Elsdon, West Lawn, Chicago, Lake Township, Cook County, Illinois, 60629, United States"
"1806749757262611026","1806749757262611026",,"lightweight","[]",false,41.998324,"Public Rack - Leoti Ave & Central Ave (south)",4,-87.763384,false,,false,"6432 N Central Ave, Chicago, IL 60646, United States"
"1674190660453805188","1674190660453805188",,"lightweight","[]",false,41.711666,"Public Rack - Western Ave & 100th St",2,-87.681963,false,,false,"10000, South Western Avenue, Beverly, Chicago, Lake Township, Cook County, Illinois, 60643, United States"
"1674190153647663368","1674190153647663368",,"lightweight","[]",false,41.706747,"Public Rack - Albany Ave & 103rd St",1,-87.700047,false,,false,"3128-3156, West 103rd Street, Mount Greenwood, Chicago, Lake Township, Cook County, Illinois, 60655, United States"
"1674190428525570800","1674190428525570800",,"lightweight","[]",false,41.814697,"Public Rack - Lake Park Ave & 44th St",1,-87.598006,false,,false,"1132, East 44th Street, Kenwood, Chicago, Hyde Park Township, Cook County, Illinois, 60653, United States"
"1674190402755766966","1674190402755766966",,"lightweight","[]",false,41.7707,"Public Rack - Keef Ave & South Chicago Ave",1,-87.611706,false,,false,"6817-6823, South Keefe Avenue, Woodlawn, Chicago, Hyde Park Township, Cook County, Illinois, 60637, United States"
"1674190338331257442","1674190338331257442",,"lightweight","[]",false,41.944068,"Public Rack - Hiawatha Park",1,-87.827302,false,,false,"Hiawatha Park Fieldhouse, 8029, West Forest Preserve Drive, Dunning, Chicago, Jefferson Township, Cook County, Illinois, 60634, United States"
"1674190145057728760","1674190145057728760",,"lightweight","[]",false,41.779196,"Public Rack - 63rd & Western Ave S",1,-87.683589,false,,false,"West 63rd Street, Chicago Lawn, Chicago, Lake Township, Cook County, Illinois, 60629, United States"
"1674190157942630676","1674190157942630676",,"lightweight","[]",false,41.803822,"Public Rack - Archer Park",2,-87.73551,false,,false,"Archer Park Fieldhouse, 4901, South Kilbourn Avenue, Archer Heights, Chicago, Lake Township, Cook County, Illinois, 60632, United States"
"1674190359806093956","1674190359806093956",,"lightweight","[]",false,41.766333,"Public Rack - Jeffrey Blvd & 71st St",1,-87.576154,false,,false,"2000-2012, East 71st Street, South Shore, Chicago, Hyde Park Township, Cook County, Illinois, 60619, United States"
"1674190411345701580","1674190411345701580",,"lightweight","[]",false,41.778442,"Public Rack - Kildare Ave & 63rd St",2,-87.73047,false,,false,"4309, West 63rd Street, West Lawn, Chicago, Lake Township, Cook County, Illinois, 60629, United States"
"1695776950890011384","1695776950890011384",,"lightweight","[]",false,41.906866,"Public Rack - La Moyne Ave and Leamington Ave",2,-87.754447,false,,false,"Lewis Elementary School, North Leclaire Avenue, Beat 2523, Austin, Chicago, Cook County, Illinois, 60651, United States"
"1674190269611780566","1674190269611780566",,"lightweight","[]",false,41.758739,"Public Rack - Cottage Grove Ave & 75th St",1,-87.605769,false,,false,"746-748, East 75th Street, Italian Bowery, Greater Grand Crossing, Chicago, Hyde Park Township, Cook County, Illinois, 60649, United States"
"1674190574554459120","1674190574554459120",,"lightweight","[]",false,41.8603966,"Public Rack - Pulaski Rd & 15th St",1,-87.7250977,false,,false,"BBF Family Services, 1512, South Pulaski Road, North Lawndale, Chicago, Cook County, Illinois, 60623, United States"
"1677249845303973994","1677249845303973994",,"lightweight","[]",false,41.69163,"Public Rack - Longwood Dr & 111th St",2,-87.671782,false,,false,"11107, South Longwood Drive, Morgan Park, Chicago, Lake Township, Cook County, Illinois, 60643, United States"
"1806753657092916058","1806753657092916058",,"lightweight","[]",false,41.990327,"Public Rack - Neola & Northwest Hwy",2,-87.795356,false,,false,"6001 N Northwest Hwy, Chicago, IL 60631, United States"
"1806749722902872496","1806749722902872496",,"lightweight","[]",false,41.785333,"Public Rack - Minuteman Park",3,-87.7626015,false,,false,"5916 S Central Ave, Chicago, IL 60638, United States"
"1715846691563848032","1715846691563848032",,"lightweight","[]",false,41.8954597,"Public Rack - Sawyer Ave & Chicago Ave",1,-87.7080933,false,,false,"3239-3243, West Chicago Avenue, Humboldt Park, Chicago, Cook County, Illinois, 60651, United States"
"1674190651863870574","1674190651863870574",,"lightweight","[]",false,41.77924,"Public Rack - Washtenaw Ave & 63rd St",2,-87.691116,false,,false,"63rd Street & Washtenaw EB, West 63rd Street, Chicago Lawn, Chicago, Lake Township, Cook County, Illinois, 60629, United States"
"1683527950760754174","1683527950760754174",,"lightweight","[]",false,41.7787155,"Public Rack - Lawndale Ave & 63rd St",1,-87.7140552,false,,false,"3627-3629, West 63rd Street, Chicago Lawn, West Lawn, Chicago, Lake Township, Cook County, Illinois, 60629, United States"
"1594046456822715150","1594046456822715150",,"lightweight","[]",false,41.984746,"Francisco Ave & Hollywood Ave",9,-87.701593,false,,false,"5654, North Francisco Avenue, West Ridge, Chicago, Jefferson Township, Cook County, Illinois, 60659, United States"
"1674190209482238322","1674190209482238322",,"lightweight","[]",false,41.99826,"Public Rack - California Ave & Devon Ave - NE",1,-87.699481,false,,false,"6419, North California Avenue, West Ridge, Chicago, Rogers Park Township, Cook County, Illinois, 60645, United States"
"1715823786785102364","1715823786785102364",,"lightweight","[]",false,41.73582,"Public Rack - Sangamon St & 87th St",1,-87.646896,false,,false,"917-921, West 87th Street, Auburn Gresham, Chicago, Lake Township, Cook County, Illinois, 60620, United States"
"1674190140762761456","1674190140762761456",,"lightweight","[]",false,41.849437,"Public Rack - 2302 S Pulaski Rd",1,-87.724879,false,,false,"2310, South Pulaski Road, North Lawndale, Chicago, Cook County, Illinois, 60652, United States"
"1674190411345701574","1674190411345701574",,"lightweight","[]",false,41.909623,"Public Rack - Keystone Ave & North Ave",1,-87.727951,false,,false,"4035-4037, West North Avenue, Beat 2534, Humboldt Park, Chicago, Jefferson Township, Cook County, Illinois, 60302, United States"
"1806749722902872490","1806749722902872490",,"lightweight","[]",false,41.780936,"Public Rack - Natoma Ave & 61st St",3,-87.787643,false,,false,"6108 S Natoma Ave, Chicago, IL 60638, United States"
"1674190424230603490","1674190424230603490",,"lightweight","[]",false,41.908816,"Public Rack - Kostner Ave & North Ave",2,-87.736463,false,,false,"1550, North Kostner Avenue, Beat 2523, Humboldt Park, Chicago, Cook County, Illinois, 60651, United States"
"1806749722902872480","1806749722902872480",,"lightweight","[]",false,41.778672,"Public Rack - 63rd St & Meade Ave",2,-87.7748374,false,,false,"6231 S Moody Ave, Chicago, IL 60638, United States"
"1674190591734328324","1674190591734328324",,"lightweight","[]",false,41.755786,"Public Rack - Racine Ave & 76th",2,-87.654054,false,,false,"Dr. Martin Luther King, Jr. Family Entertainment Center, 7600, South Racine Avenue, Brainerd, Auburn Gresham, Chicago, Lake Township, Cook County, Illinois, 60620, United States"
"1715846701206045544","1715846701206045544",,"lightweight","[]",false,41.88658,"Public Rack - Garfield Park Conservatory",2,-87.716646,false,,false,"Conservatory Entrance Fountain, North Conservatory Drive, East Garfield Park, Chicago, Cook County, Illinois, 60624, United States"
"1806753665682850706","1806753665682850706",,"lightweight","[]",false,41.749649,"Public Rack - Springfield & 79th",2,-87.721001,false,,false,"3920 W 79th St Chicago, IL 60652"
"1561012891600925250","1561012891600925250",,"lightweight","[]",false,41.868114,"Homan Ave & Fillmore St",9,-87.7109257,false,,false,"Homan & Fillmore SB, South Homan Avenue, North Lawndale, Chicago, Cook County, Illinois, 60623, United States"
"1674190488655113044","1674190488655113044",,"lightweight","[]",false,41.9384526,"Public Rack - Menard Ave & Belmont Ave",1,-87.7711009,false,,false,"Belmont & Menard EB, West Belmont Avenue, Belmont Cragin, Chicago, Jefferson Township, Cook County, Illinois, 690639, United States"
"1677249793764366370","1677249793764366370",,"lightweight","[]",false,41.84456,"Public Rack - Homan Ave & 26th St",1,-87.710058,false,,false,"3400-3410, West 26th Street, South Lawndale, Chicago, Cook County, Illinois, 60623, United States"
"1674190488655113048","1674190488655113048",,"lightweight","[]",false,41.9197904,"Public Rack - Menard Ave & Grand Ave",2,-87.7709818,false,,false,"Grand & Menard WB, West Grand Avenue, Hanson Park, Beat 2515, Belmont Cragin, Chicago, Jefferson Township, Cook County, Illinois, 60651, United States"
"1594046409578074830","1594046409578074830",,"lightweight","[]",false,41.924691,"Milwaukee Ave & Fullerton Ave",9,-87.70055,false,,false,"Liberty Bank, 2392, North Milwaukee Avenue, Maplewood, Logan Square, Chicago, Cook County, Illinois, 60647, United States"
"1674190299676551698","1674190299676551698",,"lightweight","[]",false,41.691979,"Public Rack - Ewing Ave & 112th St",1,-87.534912,false,,false,"Byline Bank, 11157, South Ewing Avenue, East Side, Chicago, Hyde Park Township, Cook County, Illinois, 60617, United States"
"1571105068000485406","1571105068000485406",,"lightweight","[]",false,41.952614,"Narragansett & Irving Park",9,-87.7853829,false,,false,"Merrimac Park Fieldhouse, 6343, West Irving Park Road, Portage Park, Chicago, Jefferson Township, Cook County, Illinois, 60634, United States"
"1806749761557578336","1806749761557578336",,"lightweight","[]",false,42.01173846,"Public Rack - Octavia Ave & Touhy Ave",2,-87.80832137,false,,false,"7242 W Touhy Ave, Chicago, IL 60631, United States"
"1674190269611780562","1674190269611780562",,"lightweight","[]",false,41.692645,"Public Rack - Cottage Grove Ave & 111th St",1,-87.609758,false,,false,"Cottage Grove & 111th Street, South Cottage Grove Avenue, Roseland, Chicago, Hyde Park Township, Cook County, Illinois, 60628, United States"
"1563698718386161684","1563698718386161684",,"lightweight","[]",false,41.9383682,"Mason Ave & Belmont Ave",9,-87.7725029,false,,false,"3145, North Monitor Avenue, Beat 2514, Belmont Cragin, Chicago, Jefferson Township, Cook County, Illinois, 60634, United States"
"1674190162237597976","1674190162237597976",,"lightweight","[]",false,41.811169,"Public Rack - Ashland Ave & 45th St  S",1,-87.66474,false,,false,"4533-4537, South Ashland Avenue, New City, Chicago, Lake Township, Cook County, Illinois, 60620, United States"
"1677249823829137482","1677249823829137482",,"lightweight","[]",false,41.750326,"Public Rack - Laflin St & 79th St",1,-87.66168,false,,false,"1515, West 79th Street, South Englewood, Auburn Gresham, Chicago, Lake Township, Cook County, Illinois, 60652, United States"
"1806753648502981408","1806753648502981408",,"lightweight","[]",false,41.970024,"Public Rack - Kilpatrick & Elston",2,-87.74341,false,,false,"4916 N Elston Ave, Chicago, IL 60630, United States"
"1674190613209164836","1674190613209164836",,"lightweight","[]",false,41.756444,"Public Rack - South Shore High School",3,-87.579556,false,,false,"Former South Shore High School, 7627-7635, South Constance Avenue, South Shore, Chicago, Hyde Park Township, Cook County, Illinois, 60649, United States"
"1561012887305957948","1561012887305957948",,"lightweight","[]",false,41.8591606,"Lawndale Ave & 16th St",9,-87.7176965,false,,false,"1540, South Lawndale Avenue, North Lawndale, Chicago, Cook County, Illinois, 60623, United States"
"1674190437115505410","1674190437115505410",,"lightweight","[]",false,41.9386855,"Public Rack - Laramie Ave & Belmont Ave",2,-87.75563,false,,false,"5128, West Belmont Avenue, Portage Park, Chicago, Jefferson Township, Cook County, Illinois, 690639, United States"
"1674190355511126658","1674190355511126658",,"lightweight","[]",false,41.744345,"Public Rack - Jeffery Blvd & 83rd St",1,-87.575043,false,,false,"2012-2024, East 83rd Street, Cheltenham, South Chicago, Chicago, Hyde Park Township, Cook County, Illinois, 60617, United States"
"1674190145057728764","1674190145057728764",,"lightweight","[]",false,41.743916,"Public Rack - 83rd St (Avalon Park) Metra",1,-87.598786,false,,false,"83rd Street (Avalon Park), East 83rd Street, Avalon Highlands, Chatham, Chicago, Hyde Park Township, Cook County, Illinois, 60617, United States"
"1806753631323112140","1806753631323112140",,"lightweight","[]",false,41.96842,"Public Rack - Avers & Lawrence",2,-87.72446,false,,false,"3830 W Lawrence Ave, Chicago, IL 60625, United States"
"1674190235252042152","1674190235252042152",,"lightweight","[]",false,42.014271,"Public Rack - Chase Ave & Touhy Ave - NW",1,-87.690408,false,,false,"Western & Chase, North Western Avenue, West Ridge, Chicago, Rogers Park Township, Cook County, Illinois, 60645, United States"
"1674190372690995872","1674190372690995872",,"lightweight","[]",false,41.788263,"Public Rack - Kedzie Ave & 58th St",2,-87.703576,false,,false,"Kedzie & 58th Street, South Kedzie Avenue, Garfield Manor, Gage Park, Chicago, Lake Township, Cook County, Illinois, 60629, United States"
"1674190664748772498","1674190664748772498",,"lightweight","[]",false,41.69161,"Public Rack - Western Ave & 111th St - SW",2,-87.681523,false,,false,"Beverly Art Center, 2407, West 111th Street, Morgan Park, Mount Greenwood, Chicago, Lake Township, Cook County, Illinois, 60643, United States"
"1806753639913046782","1806753639913046782",,"lightweight","[]",false,41.995502,"Public Rack - Harlem & Palatine",2,-87.806967,false,,false,"6262 N Harlem Ave, Chicago, IL 60631, United States"
"1695777015314520896","1695777015314520896",,"lightweight","[]",false,41.923739,"Public Rack - Fullerton Ave & Narragansett Ave",1,-87.785835,false,,false,"Burger King, 6400, West Fullerton Avenue, Beat 2512, Belmont Cragin, Chicago, Jefferson Township, Cook County, Illinois, 60707, United States"
"1806749725872941466","1806749725872941466",,"lightweight","[]",false,41.9600246,"Public Rack - Central Ave & Pensacola Ave",2,-87.7671371,false,,false,"4343 N Central Ave, Chicago, IL 60634, United States"
"1521690221159885714","1521690221159885714",,"lightweight","[]",false,41.9325593,"Hampden Ct & Diversey Ave",4,-87.6423847,false,,false,"2768, North Hampden Court, Lincoln Park, Chicago, Lake View Township, Cook County, Illinois, 60614, United States"
"1594046400988140228","1594046400988140228",,"lightweight","[]",false,41.851644,"Rockwell St & Cermak Rd",9,-87.690621,false,,false,"Little Caesars, 2601, West Cermak Road, Bohemian California, South Lawndale, Chicago, Cook County, Illinois, 60608, United States"
"1674190200892303712","1674190200892303712",,"lightweight","[]",false,41.80994,"Public Rack - Bishop St & 46th St",1,-87.661522,false,,false,"Fresenius Kidney Care, 4616, South Bishop Street, New City, Chicago, Lake Township, Cook County, Illinois, 60609, United States"
"1674190596029295630","1674190596029295630",,"lightweight","[]",false,41.691359,"Public Rack - Rockwell & 111th St",2,-87.68572,false,,false,"2545-2559, West 111th Street, Morgan Park, Mount Greenwood, Chicago, Lake Township, Cook County, Illinois, 60655, United States"
"1674190282496682476","1674190282496682476",,"lightweight","[]",false,41.75893,"Public Rack - East End Ave & 75th St",2,-87.582861,false,,false,"1720, East 75th Street, South Shore, Chicago, Hyde Park Township, Cook County, Illinois, 60649, United States"
"1563698705501259788","1563698705501259788",,"lightweight","[]",false,41.930736,"Kilpatrick Ave & Parker Ave",9,-87.744082,false,,false,"2727, North Kilpatrick Avenue, Beat 2522, Chicago, Jefferson Township, Cook County, Illinois, 60641, United States"
"1673852317692131950","1673852317692131950",,"lightweight","[]",false,42.011867,"Public Rack - California Ave & Touhy Ave - SW",1,-87.700407,false,,false,"2811-2825, West Touhy Avenue, West Ridge, Chicago, Rogers Park Township, Cook County, Illinois, 60645, United States"
"1677249849598941300","1677249849598941300",,"lightweight","[]",false,41.701379,"Public Rack - Western Ave & 106th St - West",1,-87.681826,false,,false,"10546, South Western Avenue, Beverly, Chicago, Lake Township, Cook County, Illinois, 60643, United States"
"1683527942170819570","1683527942170819570",,"lightweight","[]",false,41.964864,"Public Rack - Jensen Park",1,-87.720774,false,,false,"4556, North Lawndale Avenue, Albany Park, Chicago, Jefferson Township, Cook County, Illinois, 60625, United States"
"1715823822654071770","1715823822654071770",,"lightweight","[]",false,41.80193,"Public Rack - Oakley Ave & 50th Pl",1,-87.680903,false,,false,"2237, West 50th Place, Gage Park, Chicago, Lake Township, Cook County, Illinois, 60609, United States"
"1674190450000407314","1674190450000407314",,"lightweight","[]",false,41.879312,"Public Rack - Legler Regional Library",2,-87.725428,false,,false,"Henry E. Legler Regional Library, 115, South Pulaski Road, Central Park, West Garfield Park, Chicago, Cook County, Illinois, 60624, United States"
"1677249767994562566","1677249767994562566",,"lightweight","[]",false,41.982879,"Public Rack - Sawyer Ave & Bryn Mawr Ave - SW",1,-87.710534,false,,false,"3243-3245, West Bryn Mawr Avenue, North Park, Chicago, Jefferson Township, Cook County, Illinois, 60659, United States"
"1674190467180276532","1674190467180276532",,"lightweight","[]",false,41.699008,"Public Rack - Mackinaw Ave & 108th St",1,-87.542833,false,,false,"3325, East 108th Street, East Side, Chicago, Hyde Park Township, Cook County, Illinois, 60617, United States"
"1674190179417467196","1674190179417467196",,"lightweight","[]",false,41.70261,"Public Rack - Avenue J & 106th St",1,-87.533531,false,,false,"3713, East 106th Street, East Side, Chicago, Hyde Park Township, Cook County, Illinois, 60617, United States"
"1674190561669557204","1674190561669557204",,"lightweight","[]",false,41.705999,"Public Rack - Percy Julian HS",3,-87.65381,false,,false,"Percy L. Julian High School, West 104th Street, Washington Heights, Chicago, Lake Township, Cook County, Illinois, 60643, United States"
"1806753657092916062","1806753657092916062",,"lightweight","[]",false,41.974849,"Public Rack - Neva & Foster",2,-87.806023,false,,false,"7137 W Foster Pl, Chicago, IL 60656, United States"
"1674190346921192042","1674190346921192042",,"lightweight","[]",false,41.735485,"Public Rack - Honore St & 87th St - SE",1,-87.668889,false,,false,"1823, West 87th Street, Auburn Gresham, Chicago, Lake Township, Cook County, Illinois, 60643, United States"
"1677249789469399070","1677249789469399070",,"lightweight","[]",false,41.909614,"Public Rack - Grand Ave & North Ave",2,-87.734722,false,,false,"4318-4326, West Grand Avenue, Beat 2534, Humboldt Park, Chicago, Jefferson Township, Cook County, Illinois, 60651, United States"
"1674190450000407316","1674190450000407316",,"lightweight","[]",false,41.799463,"Public Rack - Linder Ave & 51st St",2,-87.759848,false,,false,"Mark Twain Elementary School, South Linder Avenue, Garfield Ridge, Chicago, Lake Township, Cook County, Illinois, 60638, United States"
"1674190282496682478","1674190282496682478",,"lightweight","[]",false,41.65759,"Public Rack - Eberhart Ave & 131st St",2,-87.610713,false,,false,"Eberhart & 131st St, South Eberhart Avenue, Altgeld Gardens, Riverdale, Chicago, Hyde Park Township, Cook County, Illinois, 60827, United States"
"1695776978415481326","1695776978415481326",,"lightweight","[]",false,41.703542,"Public Rack - Ave L & 105th St",1,-87.536634,false,,false,"10532, South Avenue L, East Side, Chicago, Hyde Park Township, Cook County, Illinois, 60617, United States"
"1674190626094066746","1674190626094066746",,"lightweight","[]",false,41.762265,"Public Rack - Stony Is Ave & 73rd St",2,-87.585469,false,,false,"1619, East 73rd Street, Bryn Mawr West, South Shore, Chicago, Hyde Park Township, Cook County, Illinois, 60649, United States"
"1806753652797948740","1806753652797948740",,"lightweight","[]",false,41.749713,"Public Rack - Mozart & 79th",2,-87.693932,false,,false,"2833 W 79th St, Chicago, IL 60652, United States"
"1594046396693172926","1594046396693172926",,"lightweight","[]",false,41.85936,"Albany Ave & 16th St",9,-87.70302,false,,false,"1564, South Albany Avenue, North Lawndale, Chicago, Cook County, Illinois, 60623, United States"
"1448642179437434486","1448642179437434486",,"lightweight","[]",false,41.69263895647179,"Martin Luther King Dr & 111th St",6,-87.61367386484747,false,,false,"111th Street & King Drive, East 111th Street, Roseland, Chicago, Hyde Park Township, Cook County, Illinois, 60628, United States"
"1674190497245047652","1674190497245047652",,"lightweight","[]",false,41.688872,"Public Rack - Michigan Ave & 113th St",1,-87.620879,false,,false,"11301-11305, South Michigan Avenue, Roseland, Pullman, Chicago, Hyde Park Township, Cook County, Illinois, 60628, United States"
"1436495096608724634","1436495096608724634",,"lightweight","[]",false,41.902901,"N Clark St & W Elm St",4,-87.631282,false,,false,"75, West Elm Street, Near North Side, Chicago, Cook County, Illinois, 60610, United States of America"
"1677249772289529864","1677249772289529864",,"lightweight","[]",false,41.9830174,"Public Rack - Sawyer Ave & Bryn Mawr Ave - SE",1,-87.7096999,false,,false,"3217, West Bryn Mawr Avenue, North Park, Chicago, Jefferson Township, Cook County, Illinois, 60659, United States"
"1674190303971519000","1674190303971519000",,"lightweight","[]",false,41.712353,"Public Rack - Ewing Ave & Indianapolis Ave",1,-87.53545,false,,false,"10052, South Ewing Avenue, East Side, Chicago, Hyde Park Township, Cook County, Illinois, 60617, United States"
"1806753657092916052","1806753657092916052",,"lightweight","[]",false,41.792142,"Public Rack - Neenah & Archer",2,-87.785406,false,,false,"6525 W Archer Ave, Chicago, IL 60638, United States"
"1594046448262943690","1594046448262943690",,"lightweight","[]",false,41.9610471,"Francisco Ave & Montrose Ave",9,-87.700901,false,,false,"4403-4413, North Francisco Avenue, Irving Park, Chicago, Jefferson Township, Cook County, Illinois, 60625, United States"
"1683527967940622362","1683527967940622362",,"lightweight","[]",false,41.997764,"Public Rack - Washtenaw Ave & Devon Ave",1,-87.697221,false,,false,"6415, North Washtenaw Avenue, West Ridge, Chicago, Rogers Park Township, Cook County, Illinois, 60645, United States"
"1594041781399920506","1594041781399920506",,"lightweight","[]",false,41.8080713,"Springfield Ave & 47th St",9,-87.7212202,false,,false,"4655-4659, South Springfield Avenue, Archer Heights, Chicago, Lake Township, Cook County, Illinois, 60632, United States"
"1448642162257565286","1448642162257565286",,"lightweight","[]",false,41.6926176,"S Wentworth Ave & W 111th St",5,-87.6280518,false,,false,"207, West 111th Street, Morgan Park, Chicago, Cook County, Illinois, 60643, United States of America"
"1715823829734775370","1715823829734775370",,"lightweight","[]",false,41.808413,"Public Rack - Maplewood Ave & 47th St",1,-87.688535,false,,false,"2539, West 47th Street, Brighton Park, Chicago, Lake Township, Cook County, Illinois, 60638, United States"
"1674190475770211136","1674190475770211136",,"lightweight","[]",false,41.865608,"Public Rack - Mason Ave & Roosevelt Rd",1,-87.772389,false,,false,"5910-5916, West Roosevelt Road, Austin, Chicago, Cook County, Illinois, 60644, United States"
"1674190647568903268","1674190647568903268",,"lightweight","[]",false,41.736063,"Public Rack - Wabash Ave & 87th St",1,-87.622952,false,,false,"McDonald's, 29, East 87th Street, Garden Homes, Chatham, Chicago, Hyde Park Township, Cook County, Illinois, 60619, United States"
"1594041777104953202","1594041777104953202",,"lightweight","[]",false,41.793279,"Komensky Ave & 55th St",9,-87.724189,false,,false,"4012-4020, West 55th Street, West Elsdon, Chicago, Lake Township, Cook County, Illinois, 60629, United States"
"1715846717333651852","1715846717333651852",,"lightweight","[]",false,41.8021917,"Public Rack - Washington Park Ct & 51st St",2,-87.6151444,false,,false,"5036-5054, South Washington Park Court, Grand Boulevard, Chicago, Hyde Park Township, Cook County, Illinois, 60615, United States"
"1571105055115583496","1571105055115583496",,"lightweight","[]",false,41.953038,"Long & Irving Park",9,-87.7621632,false,,false,"vehicle storage, North Long Avenue, Portage Park, Chicago, Jefferson Township, Cook County, Illinois, 60630, United States"
"1806753657092916072","1806753657092916072",,"lightweight","[]",false,41.978888,"Public Rack - Oak Park & Higgins",2,-87.796235,false,,false,"6728 W Higgins Ave, Chicago, IL 60656, United States"
"1674190432820538108","1674190432820538108",,"lightweight","[]",false,41.702472,"Public Rack - Langley Ave & 105th Pl",2,-87.606477,false,,false,"Poe Classical School, 10538, South Langley Avenue, Pullman, Chicago, Hyde Park Township, Cook County, Illinois, 60628, United States"
"1806753661387883396","1806753661387883396",,"lightweight","[]",false,41.77707,"Public Rack - S Menard & W 63rd",2,-87.76664,false,,false,"5800 W 63rd Pl, Chicago, IL 60638, United States"
"1806749744377709064","1806749744377709064",,"lightweight","[]",false,41.9685781,"Public Rack - Elston Ave & Gunnison St",2,-87.7405685,false,,false,"4823 N Elston Ave, Chicago, IL 60630, United States"
"1695777010841019090","1695777010841019090",,"lightweight","[]",false,41.773095,"Public Rack - Marquette Rd & 67th St",2,-87.612886,false,,false,"500, East 67th Street, Woodlawn, Chicago, Hyde Park Township, Cook County, Illinois, 60619, United States"
"1806749747347777950","1806749747347777950",,"lightweight","[]",false,41.9955785,"Public Rack - Haft Ave & Milwaukee Ave",2,-87.7863994,false,,false,"6318 N Milwaukee Ave, Chicago, IL 60646, United States"
"1674190381280930478","1674190381280930478",,"lightweight","[]",false,41.81359,"Public Rack - Kedzie Ave & Archer Ave",2,-87.70478,false,,false,"Walgreens, 4385, South Archer Avenue, Brighton Park, Chicago, Lake Township, Cook County, Illinois, 60632, United States"
"1677249849598941296","1677249849598941296",,"lightweight","[]",false,41.692458,"Public Rack - Hoyne Ave & 110th Pl",2,-87.674035,false,,false,"11057-11059, South Hoyne Avenue, Morgan Park, Chicago, Lake Township, Cook County, Illinois, 60643, United States"
"1683527931525155818","1683527931525155818",,"lightweight","[]",false,41.9659853,"Public Rack - Drake Ave & Leland Ave",2,-87.716876,false,,false,"4637, North Drake Avenue, Irving Park, Chicago, Jefferson Township, Cook County, Illinois, 60625, United States"
"1594046379513303716","1594046379513303716",,"lightweight","[]",false,41.886528,"Sacramento Blvd & Fulton Ave",9,-87.70167,false,,false,"3010, West Fulton Boulevard, East Garfield Park, Chicago, Cook County, Illinois, 60622-4580, United States"
"1806749757262611012","1806749757262611012",,"lightweight","[]",false,41.9979207,"Public Rack - Kinzua Ave & Devon Ave",3,-87.7653719,false,,false,"6413 N Kinzua Ave, Chicago, IL 60646, United States"
"1806753635618079462","1806753635618079462",,"lightweight","[]",false,41.77643,"Public Rack - Cicero & 64th",2,-87.742389,false,,false,"6402 S Cicero Ave, Chicago, IL 60638, United States"
"1715823796884267962","1715823796884267962",,"lightweight","[]",false,41.777732,"Public Rack - Lawndale & 63rd St",1,-87.713878,false,,false,"3621, West 63rd Place, West Lawn, Chicago, Lake Township, Cook County, Illinois, 60629, United States"
"1674190334036290140","1674190334036290140",,"lightweight","[]",false,41.706863,"Public Rack - Harvard Ave & 103rd St",1,-87.631674,false,,false,"319-327, West 103rd Street, Roseland, Washington Heights, Chicago, Lake Township, Cook County, Illinois, 60655, United States"
"1674190626094066752","1674190626094066752",,"lightweight","[]",false,41.72228,"Public Rack - Stony Island & 95th St",1,-87.584943,false,,false,"95th Street & Stony Island, East 95th Street, South Deering, Chicago, Hyde Park Township, Cook County, Illinois, 60617, United States"
"1677249883958679718","1677249883958679718",,"lightweight","[]",false,41.702566,"Public Rack - Torrence Ave  & 106th St",1,-87.559923,false,,false,"10600-10606, South Torrence Avenue, South Deering, Chicago, Hyde Park Township, Cook County, Illinois, 60409, United States"
"1683527955055720454","1683527955055720454",,"lightweight","[]",false,41.79480875,"Public Rack - Prairie Ave & Garfield Blvd N",1,-87.61890696,false,,false,"Prairie Ave & Garfield Blvd, East Garfield Boulevard, Washington Park, Chicago, Hyde Park Township, Cook County, Illinois, 90615, United States"
"1806753644208014094","1806753644208014094",,"lightweight","[]",false,41.749855,"Public Rack - Homan & 79th",2,-87.707507,false,,false,"3400 W 79th St, Chicago, IL 60652, United States"
"1674190604619230230","1674190604619230230",,"lightweight","[]",false,41.997575,"Public Rack - Sacramento Ave & Devon Ave",1,-87.704649,false,,false,"3000-3004, West Devon Avenue, West Ridge, Chicago, Rogers Park Township, Cook County, Illinois, 60645, United States"
"1806753652797948730","1806753652797948730",,"lightweight","[]",false,41.79456,"Public Rack - Mason & Archer",2,-87.77092,false,,false,"6118 S Archer Ave, Chicago, IL 60638, United States"
"1674190205187271014","1674190205187271014",,"lightweight","[]",false,41.815242,"Public Rack - Brighton Park Branch Chicago Library",2,-87.702651,false,,false,"4300-4306, South Archer Avenue, Brighton Park, Chicago, Lake Township, Cook County, Illinois, 60632, United States"
"1806749748672676378","1806749748672676378",,"lightweight","[]",false,41.993871,"Public Rack - Normandy Ave & Raven St",3,-87.792536,false,,false,"6634 W Raven St, Chicago, IL 60631, United States"
"1806749731492807126","1806749731492807126",,"lightweight","[]",false,41.955625,"Public Rack - Cicero Ave & Belle Plaine Ave",4,-87.747517,false,,false,"4110 N Cicero Ave, Chicago, IL 60641, United States"
"1674190462885309226","1674190462885309226",,"lightweight","[]",false,41.724234,"Public Rack - Lowe Ave & 94th St",2,-87.639453,false,,false,"Kipling Elementary School, South Lowe Avenue, Washington Heights, Chicago, Lake Township, Cook County, Illinois, 60620, United States"
"1674190321151388222","1674190321151388222",,"lightweight","[]",false,41.720964,"Public Rack - Halsted St & 95th St - SW",1,-87.643447,false,,false,"Halsted & 95th Street, South Halsted Street, Washington Heights, Chicago, Lake Township, Cook County, Illinois, 60628, United States"
"1806753657092916076","1806753657092916076",,"lightweight","[]",false,42.000333,"Public Rack - Oketo & Northwest Hwy",2,-87.812447,false,,false,"6578 N Northwest Hwy, Chicago, IL 60631, United States"
"1806749761557578338","1806749761557578338",,"lightweight","[]",false,42.0119181,"Public Rack - Osceola Ave & Touhy Ave",4,-87.8126378,false,,false,"7204 N Osceola Ave, Chicago, IL 60631, United States"
"1674190621799099446","1674190621799099446",,"lightweight","[]",false,41.809085,"Public Rack - State St & 47th st",2,-87.627384,false,,false,"Taylor Park Fieldhouse, 39, West 47th Street, Grand Boulevard, Chicago, Lake Township, Cook County, Illinois, 60609, United States"
"1677249815239202876","1677249815239202876",,"lightweight","[]",false,41.731767,"Public Rack - Cottage Grove Ave & 89th Pl",1,-87.604899,false,,false,"8938-8940, South Cottage Grove Avenue, Dauphin Park, Chatham, Chicago, Hyde Park Township, Cook County, Illinois, 60619, United States"
"1677249841009006690","1677249841009006690",,"lightweight","[]",false,41.691373,"Public Rack - Troy & 111th St",1,-87.700281,false,,false,"3145-3151, West 111th Street, Mount Greenwood, Chicago, Lake Township, Cook County, Illinois, 60655, United States"
"1674190261021845960","1674190261021845960",,"lightweight","[]",false,41.733543,"Public Rack - Commercial Ave & 89th St",1,-87.551152,false,,false,"Athletico Physical Therapy, 8905, South Commercial Avenue, South Chicago, Chicago, Hyde Park Township, Cook County, Illinois, 60617, United States"
"1674190346921192048","1674190346921192048",,"lightweight","[]",false,41.729964,"Public Rack - Houston Ave & 91st St",1,-87.549645,false,,false,"The Salud Center, 3039, East 91st Street, South Chicago, Chicago, Hyde Park Township, Cook County, Illinois, 60617, United States"
"1594046435347878644","1594046435347878644",,"lightweight","[]",false,41.979461,"Lincoln Ave & Balmoral Ave",9,-87.693013,false,,false,"5356-5360, North Lincoln Avenue, Bowmanville, Lincoln Square, Chicago, Jefferson Township, Cook County, Illinois, 60645, United States"
"1695776948350710232","1695776948350710232",,"lightweight","[]",false,41.892114,"Public Rack - Lamon Ave & Erie St",3,-87.746676,false,,false,"Nash Elementary School, West Erie Street, Moreland, Austin, Chicago, Cook County, Illinois, 60644, United States"
"1806753639913046768","1806753639913046768",,"lightweight","[]",false,41.977363,"Public Rack - Cumberland & Catherine",2,-87.836748,false,,false,"8362 W Catherine Ave, Chicago, IL 60656, United States"
"1575949519568499430","1575949519568499430",,"lightweight","[]",false,41.8986607,"Augusta Blvd & Laramie Ave",9,-87.7554551,false,,false,"1001, North Laramie Avenue, Austin, Chicago, Cook County, Illinois, 60651, United States"
"1582242285272847904","1582242285272847904",,"lightweight","[]",false,41.7863375,"Maplewood Ave & 59th St",9,-87.6874351,false,,false,"2525, West 59th Street, Marquette Manor, Gage Park, Chicago, Lake Township, Cook County, Illinois, 60629, United States"
"1674190368396028562","1674190368396028562",,"lightweight","[]",false,41.952874,"Public Rack - Kedvale Ave & Avondale Ave",2,-87.731229,false,,false,"3950, North Avondale Avenue, Irving Park, Chicago, Jefferson Township, Cook County, Illinois, 60641, United States"
"1715823791080069664","1715823791080069664",,"lightweight","[]",false,41.77926,"Public Rack - Fairfield Ave & 63rd St",1,-87.692703,false,,false,"2746, West 63rd Street, Chicago Lawn, Chicago, Lake Township, Cook County, Illinois, 60629, United States"
"1806749731492807128","1806749731492807128",,"lightweight","[]",false,41.9625222,"Public Rack - Milwaukee Ave & Sunnyside Ave",2,-87.7560059,false,,false,"5124 W Sunnyside Ave, Chicago, IL 60630, United States"
"1806749722902872506","1806749722902872506",,"lightweight","[]",false,41.7929013,"Public Rack - Mobile Ave & Archer Ave",4,-87.7802444,false,,false,"6348 S Archer Ave, Chicago, IL 60638, United States"
"1806749727197839822","1806749727197839822",,"lightweight","[]",false,41.953139,"Public Rack - Irving Park Rd & Austin Ave",4,-87.777118,false,,false,"6008 W Irving Park Rd, Chicago, IL 60634, United States"
"1806749757262611036","1806749757262611036",,"lightweight","[]",false,42.0114627,"Public Rack - Overhill Ave & Touhy Ave",2,-87.81900973,false,,false,"7706 W Touhy Ave, Chicago, IL 60631, United States"
"1674190376985963172","1674190376985963172",,"lightweight","[]",false,41.782281,"Public Rack - Kedzie Ave & 61st Pl E",1,-87.703047,false,,false,"6107, South Kedzie Avenue, Chicago Lawn, Chicago, Lake Township, Cook County, Illinois, 60629, United States"
"1677249845303973996","1677249845303973996",,"lightweight","[]",false,41.678349,"Public Rack - Western Ave & 118th St",1,-87.680919,false,,false,"Family Dollar, 11810, South Western Avenue, Morgan Park, Chicago, Lake Township, Cook County, Illinois, 60643, United States"
"1677249785174431768","1677249785174431768",,"lightweight","[]",false,41.947174,"Public Rack - Kedvale Ave & Addison St",2,-87.730837,false,,false,"Saint Viator Elementary School, 3618, North Kedvale Avenue, Irving Park, Chicago, Jefferson Township, Cook County, Illinois, 60641, United States"
"1674190183712434502","1674190183712434502",,"lightweight","[]",false,41.681136,"Public Rack - Avenue O & 118th St",1,-87.54029,false,,false,"South Avenue O, Hegewisch, Chicago, Hyde Park Township, Cook County, Illinois, 60633, United States"
"1806749748672676392","1806749748672676392",,"lightweight","[]",false,41.982934,"Public Rack - Bryn Mawr Ave & Milwaukee Ave",4,-87.774434,false,,false,"5550 N Milwaukee Ave, Chicago, IL 60630, United States"
"1674190540194720686","1674190540194720686",,"lightweight","[]",false,41.704672,"Public Rack - Oglesby Ave & 105th St",1,-87.565519,false,,false,"2403-2409, East 105th Street, Trumbull Park Terrace, South Deering, Chicago, Hyde Park Township, Cook County, Illinois, 60617, United States"
"1715823812554906158","1715823812554906158",,"lightweight","[]",false,41.779668,"Public Rack - Homan Ave & 62nd Pl",1,-87.707834,false,,false,"6235, South Homan Avenue, Chicago Lawn, Chicago, Lake Township, Cook County, Illinois, 60629, United States"
"1806753648502981402","1806753648502981402",,"lightweight","[]",false,41.972642,"Public Rack - Kenneth & Carmen",2,-87.739239,false,,false,"5026 N Kenneth Ave, Chicago, IL 60630, United States"
"1674190239547009454","1674190239547009454",,"lightweight","[]",false,41.793307,"Public Rack - Christiana Ave & 55th St",1,-87.707702,false,,false,"3341, West 55th Street, Garfield Manor, Gage Park, Chicago, Lake Township, Cook County, Illinois, 60629, United States"
"1674190359806093958","1674190359806093958",,"lightweight","[]",false,41.941612,"Public Rack - Jonathan Y Scammon Public School",1,-87.732372,false,,false,"Scammon Elementary School, West Henderson Street, Irving Park, Chicago, Jefferson Township, Cook County, Illinois, 60641, United States"
"1674190278201715174","1674190278201715174",,"lightweight","[]",false,41.748301,"Public Rack - Damen Ave & 80th St",2,-87.673213,false,,false,"8000, South Damen Avenue, Auburn Gresham, Chicago, Lake Township, Cook County, Illinois, 60620, United States"
"1594041785694887806","1594041785694887806",,"lightweight","[]",false,41.8023156,"Kenneth Ave & 50th St",6,-87.7344142,false,,false,"4454, West 50th Street, Archer Heights, Chicago, Lake Township, Cook County, Illinois, 60632, United States"
"1806753664357952126","1806753664357952126",,"lightweight","[]",false,41.764396,"Public Rack - Sacramento & 71st",2,-87.698106,false,,false,"3007 W 71st St, Chicago, IL 60629, United States"
"1806753652797948728","1806753652797948728",,"lightweight","[]",false,41.971722,"Public Rack - Mango & Higgins",2,-87.772288,false,,false,"5747 W Higgins Ave, Chicago, IL 60630, United States"
"1695776938005109486","1695776938005109486",,"lightweight","[]",false,41.8715832,"Public Rack - Pulaski Rd & Lexington St",1,-87.7252086,false,,false,"735-743, South Pulaski Road, North Lawndale, West Garfield Park, Chicago, Cook County, Illinois, 60652, United States"
"1806749731492807144","1806749731492807144",,"lightweight","[]",false,41.98012149,"Public Rack - Nordica Ave & Higgins Ave",2,-87.80211339,false,,false,"6954 W Higgins Ave, Chicago, IL 60656, United States"
"1806749718607905176","1806749718607905176",,"lightweight","[]",false,41.7645054,"Public Rack - Spaulding Ave & 71st St",4,-87.7064722,false,,false,"3330 W 71st St, Chicago, IL 60629, United States"
"1683527927230188516","1683527927230188516",,"lightweight","[]",false,42.00507,"Public Rack - Campbell Ave & Pratt Blvd",1,-87.692643,false,,false,"6806-6810, North Campbell Avenue, West Ridge, Chicago, Rogers Park Township, Cook County, Illinois, 60645, United States"
"1806749731492807142","1806749731492807142",,"lightweight","[]",false,41.9746022,"Public Rack - Oak Park Ave & Foster Ave",10,-87.8119558,false,,false,"7354 W Foster Ave, Chicago, IL 60656, United States"
"1806753639913046772","1806753639913046772",,"lightweight","[]",false,41.736037,"Public Rack - Damen & 87th",2,-87.672691,false,,false,"1956 W 87th St, Chicago, IL 60620, United States"
"1674190484360145746","1674190484360145746",,"lightweight","[]",false,41.898333,"Public Rack - Menard Ave & Agusta Blvd",1,-87.770501,false,,false,"946, North Menard Avenue, Austin, Chicago, Cook County, Illinois, 60651, United States"
"1806753631323112128","1806753631323112128",,"lightweight","[]",false,41.77966,"Public Rack - Austin & 62nd",2,-87.771414,false,,false,"6201 S Austin Ave, Chicago, IL 60638, United States"
"1674190471475243832","1674190471475243832",,"lightweight","[]",false,41.75163,"Public Rack - Marquette Ave & 79th St",1,-87.558707,false,,false,"2701-2709, East 79th Street, Windsor Park, South Chicago, Chicago, Hyde Park Township, Cook County, Illinois, 60649, United States"
"1674190170827532590","1674190170827532590",,"lightweight","[]",false,41.909281,"Public Rack - Austin Blvd & North Ave",1,-87.775613,false,,false,"6006-6016, West North Avenue, Beat 2531, Austin, Chicago, Jefferson Township, Cook County, Illinois, 60639, United States"
"1674190140762761460","1674190140762761460",,"lightweight","[]",false,41.779334,"Public Rack - 63rd & Western Ave N",1,-87.683768,false,,false,"6244-6258, South Western Avenue, Chicago Lawn, Chicago, Lake Township, Cook County, Illinois, 60643, United States"
"1677249888253647022","1677249888253647022",,"lightweight","[]",false,41.666395,"Public Rack - Michigan Ave & 125th Pl",1,-87.619933,false,,false,"49, East 125th Place, West Pullman, Chicago, Hyde Park Township, Cook County, Illinois, 60827, United States"
"1806753631323112148","1806753631323112148",,"lightweight","[]",false,41.73569,"Public Rack - California & 87th",2,-87.692172,false,,false,"2800 W 87th St, Chicago, IL 60652, United States"
"1674190634684001356","1674190634684001356",,"lightweight","[]",false,41.76766,"Public Rack - The Montessori School of Englewood",2,-87.66781,false,,false,"6936, South Hermitage Avenue, West Englewood, Chicago, Lake Township, Cook County, Illinois, 60636, United States"
"1674190222367140228","1674190222367140228",,"lightweight","[]",false,41.947562,"Public Rack - Canty Elementary School",2,-87.829311,false,,false,"Canty Elementary School, North Panama Avenue, Dunning, Chicago, Jefferson Township, Cook County, Illinois, 60634, United States"
"1674190484360145744","1674190484360145744",,"lightweight","[]",false,41.877684,"Public Rack - Menard Ave & Adams Blvd",2,-87.769356,false,,false,"5471, West Adams Boulevard, Austin, Chicago, Cook County, Illinois, 60616, United States"
"1683527937875852272","1683527937875852272",,"lightweight","[]",false,41.74927751,"Public Rack - Jeffery Blvd & 81st St",1,-87.57585394,false,,false,"Horace Mann Elementary School, East 80th Street, South Chicago, Chicago, Hyde Park Township, Cook County, Illinois, 60617, United States"
"1683527937875852268","1683527937875852268",,"lightweight","[]",false,41.658962,"Public Rack - Houston Ave & 130th St",1,-87.548528,false,,false,"13002, South Houston Avenue, Hegewisch, Chicago, Hyde Park Township, Cook County, Illinois, 60633, United States"
"1715846713038684540","1715846713038684540",,"lightweight","[]",false,41.844168,"Public Rack - Komensky Ave & 26th St",1,-87.726317,false,,false,"4043, West 26th Street, Crawford, South Lawndale, Chicago, Cook County, Illinois, 60623, United States"
"1806749718607905156","1806749718607905156",,"lightweight","[]",false,41.741382,"Public Rack - 83rd Pl & Kedzie Ave S",2,-87.702345,false,,false,"8340 S Kedzie Ave Chicago, IL 60652"
"1674190252431911356","1674190252431911356",,"lightweight","[]",false,41.909329,"Public Rack - Cicero Ave & North Ave",1,-87.745838,false,,false,"4753-4759, West North Avenue, Beat 2523, Austin, Chicago, Jefferson Township, Cook County, Illinois, 60302, United States"
"1674190415640668880","1674190415640668880",,"lightweight","[]",false,41.973896,"Public Rack - Kimball Ave & Carmen Ave",3,-87.713297,false,,false,"Von Steuben Metropolitan High School, West Carmen Avenue, North Park, Chicago, Jefferson Township, Cook County, Illinois, 60659, United States"
"1806753638588148344","1806753638588148344",,"lightweight","[]",false,41.762566,"Public Rack - Hamlin & 72nd",2,-87.717515,false,,false,"7140 S Hamlin Ave, Chicago, IL 60629, United States"
"1677249785174431770","1677249785174431770",,"lightweight","[]",false,41.924447,"Public Rack - Kilbourn Ave & Fullerton Ave",1,-87.73998,false,,false,"4510-4522, West Fullerton Avenue, Beat 2521, Hermosa, Chicago, Jefferson Township, Cook County, Illinois, 60639, United States"
"1674190175122499898","1674190175122499898",,"lightweight","[]",false,41.709832,"Public Rack - Avenue J & 102nd St",2,-87.534238,false,,false,"10200, South Avenue J, East Side, Chicago, Hyde Park Township, Cook County, Illinois, 60617, United States"
"1806753665682850716","1806753665682850716",,"lightweight","[]",false,41.995652,"Public Rack - St Louis & Lincoln",2,-87.716328,false,,false,"6266 N Lincoln Ave, Chicago, IL 60659, United States"
"1674190291086617084","1674190291086617084",,"lightweight","[]",false,41.659119,"Public Rack - Ellis Ave & Doty Ave",2,-87.597052,false,,false,"East 130th Street, Philip Murray Homes, Riverdale, Chicago, Hyde Park Township, Cook County, Illinois, 60827, United States"
"1674190467180276534","1674190467180276534",,"lightweight","[]",false,41.741897,"Public Rack - Mackinaw Ave & 85th St",1,-87.543162,false,,false,"8436, South Mackinaw Avenue, The Bush, South Chicago, Chicago, Hyde Park Township, Cook County, Illinois, 60617, United States"
"1674190467180276528","1674190467180276528",,"lightweight","[]",false,41.96614,"Public Rack - Lowell Ave & Elston Ave",1,-87.737,false,,false,"4677, North Lowell Avenue, Mayfair, Chicago, Jefferson Township, Cook County, Illinois, 60630, United States"
"1695780087377656306","1695780087377656306",,"lightweight","[]",false,41.931803,"Public Rack - Kostner Ave & Diversey Ave",1,-87.737285,false,,false,"4408-4410, West Diversey Avenue, Beat 2521, Hermosa, Chicago, Jefferson Township, Cook County, Illinois, 60707, United States"
"1674190239547009456","1674190239547009456",,"lightweight","[]",false,41.81175,"Public Rack - Christiana Ave & Archer Ave",1,-87.707577,false,,false,"4477, South Archer Avenue, Brighton Park, Chicago, Lake Township, Cook County, Illinois, 60632, United States"
"1674190514424916872","1674190514424916872",,"lightweight","[]",false,41.692883,"Public Rack - Mt Greenwood Library - South",2,-87.701048,false,,false,"Mount Greenwood Branch Library, 11010, South Kedzie Avenue, Mount Greenwood, Chicago, Lake Township, Cook County, Illinois, 60655, United States"
"1674190686223609002","1674190686223609002",,"lightweight","[]",false,41.706498,"Public Rack - Wood St & 103rd St",1,-87.667091,false,,false,"10314, South Wood Street, Morgan Park, Beverly, Chicago, Lake Township, Cook County, Illinois, 60643, United States"
"1674190239547009458","1674190239547009458",,"lightweight","[]",false,41.93917,"Public Rack - Christiana Ave & Belmont Ave",6,-87.71169,false,,false,"3333-3339, West Belmont Avenue, Avondale, Chicago, Jefferson Township, Cook County, Illinois, 60618, United States"
"1674190265316813264","1674190265316813264",,"lightweight","[]",false,41.738409,"Public Rack - Cottage Grove & 86th St",1,-87.604822,false,,false,"8601-8603, South Cottage Grove Avenue, Dauphin Park, Chatham, Chicago, Hyde Park Township, Cook County, Illinois, 60619, United States"
"1806753639913046780","1806753639913046780",,"lightweight","[]",false,41.98986,"Public Rack - Forest Glen & Peterson",2,-87.742921,false,,false,"5960 N Forest Glen Ave, Chicago, IL 60646, United States"
"1683527972235589666","1683527972235589666",,"lightweight","[]",false,41.780621,"Public Rack - Woodlawn Ave & 63rd St N",1,-87.596033,false,,false,"1200, East 63rd Street, Woodlawn, Chicago, Hyde Park Township, Cook County, Illinois, 60637, United States"
"1806749744377709060","1806749744377709060",,"lightweight","[]",false,41.9685781,"Public Rack - 4810 Keeler Ave",2,-87.7330358,false,,false,"4806 N Keeler Ave, Chicago, IL 60630, United States"
"1674190557374589902","1674190557374589902",,"lightweight","[]",false,41.8586742,"Public Rack - Penn Elementary School / KIPP Ascend Middle School",4,-87.7223835,false,,false,"1616, South Avers Avenue, North Lawndale, Chicago, Cook County, Illinois, 60623, United States"
"1674190544489687992","1674190544489687992",,"lightweight","[]",false,41.700168,"Public Rack - Orville T Bright School",2,-87.562148,false,,false,"Orville Bright Elementary School, 10740, South Calhoun Avenue, South Deering, Chicago, Hyde Park Township, Cook County, Illinois, 60617, United States"
"1674190355511126652","1674190355511126652",,"lightweight","[]",false,41.759876,"Public Rack - James Madison School",2,-87.590638,false,,false,"James Madison Elementary School, East 74th Street, Essex, South Shore, Chicago, Hyde Park Township, Cook County, Illinois, 60649, United States"
"1715846704448749936","1715846704448749936",,"lightweight","[]",false,41.885891,"Public Rack - Kedzie Ave & Walnut St",1,-87.706425,false,,false,"252-266, North Kedzie Avenue, East Garfield Park, Chicago, Cook County, Illinois, 60647, United States"
"1674190454295374622","1674190454295374622",,"lightweight","[]",false,41.743271,"Public Rack - Loomis Blvd & 83rd St",1,-87.658769,false,,false,"8256-8258, South Loomis Boulevard, South Englewood, Auburn Gresham, Chicago, Lake Township, Cook County, Illinois, 60620, United States"
"1674190334036290136","1674190334036290136",,"lightweight","[]",false,41.780728,"Public Rack - Harper Ave & 63rd St",6,-87.587566,false,,false,"Hyde Park Academy High School, South Park Shore East Court, Woodlawn, Chicago, Hyde Park Township, Cook County, Illinois, 60637, United States"
"1806749757262611032","1806749757262611032",,"lightweight","[]",false,42.0114922,"Public Rack - Ottowa Ave & Touhy Ave",2,-87.8182017,false,,false,"7648 W Touhy Ave, Chicago, IL 60631, United States"
"1674190578849426420","1674190578849426420",,"lightweight","[]",false,41.81791,"Public Rack - Pulaski Rd & 41st",2,-87.72413,false,,false,"Wendy's, 4100, South Pulaski Road, Archer Heights, Chicago, Lake Township, Cook County, Illinois, 60632, United States"
"1674190213777205626","1674190213777205626",,"lightweight","[]",false,41.822632,"Public Rack - California Ave & Pershing Rd",10,-87.695024,false,,false,"Former CPD Station, 3900, South California Avenue, Brighton Park, Chicago, Lake Township, Cook County, Illinois, 60632, United States"
"1674190381280930480","1674190381280930480",,"lightweight","[]",false,41.972097,"Public Rack - Kedzie Ave & Argyle St",2,-87.708572,false,,false,"3199, West Argyle Street, Albany Park, Chicago, Jefferson Township, Cook County, Illinois, 60625, United States"
"1594046400988140226","1594046400988140226",,"lightweight","[]",false,41.846506,"Sacramento Ave & 25th St",9,-87.700139,false,,false,"2458, South Sacramento Avenue, South Lawndale, Chicago, Cook County, Illinois, 60623, United States"
"1594046443937813244","1594046443937813244",,"lightweight","[]",false,41.969659,"Western Ave & Gunnison St",9,-87.68955,false,,false,"West Gunnison Street, Bowmanville, Lincoln Square, Chicago, Lake View Township, Cook County, Illinois, 60625, United States"
